$WIMWV,116.1,R,0.7,N,A*23
$GPGGA,110211.40,4336.8587,N,01330.0204,E,1,6,2.6,0.0,M,45.4,M,,*5A
$HCHDT,8.8,T*29
$GPVTG,322.3,T,319.4,M,0.0,N,0.0,K,A*2C
$WIMWV,115.0,R,0.7,N,A*21
$WIMDA,30.2239,I,1.0235,B,17.7,C,,,43.2,,5.0,C,123.7,T,120.8,M,0.7,N,0.4,M*5B
$GPZDA,110211.80,13,02,2015,00,00*6A
$YXXDR,C,,C,WCHR,C,,C,WCHT,C,,C,HINX,P,1.0235,B,STNP*4E
$HCHDT,8.9,T*28
$YXXDR,A,-0.6,D,PTCH,A,1.1,D,ROLL*76
$WIMWV,119.0,R,0.8,N,A*22
$GPGGA,110212.40,4336.8587,N,01330.0204,E,1,6,2.6,0.0,M,45.4,M,,*59
$HCHDT,8.9,T*28
$GPVTG,322.3,T,319.4,M,0.0,N,0.0,K,A*2C
$WIMWV,122.6,R,0.8,N,A*2C
$WIMDA,30.2269,I,1.0236,B,17.7,C,,,43.3,,5.0,C,131.5,T,128.6,M,0.8,N,0.4,M*54
$GPZDA,110212.80,13,02,2015,00,00*69
$YXXDR,C,,C,WCHR,C,,C,WCHT,C,,C,HINX,P,1.0236,B,STNP*4D
$HCHDT,8.9,T*28
$YXXDR,A,-0.4,D,PTCH,A,1.0,D,ROLL*75
$WIMWV,123.9,R,0.7,N,A*2D
$GPGGA,110213.40,4336.8587,N,01330.0204,E,1,6,2.6,0.0,M,45.4,M,,*58
$HCHDT,8.9,T*28
$GPVTG,322.3,T,319.4,M,0.0,N,0.0,K,A*2C
$WIMWV,140.4,R,0.7,N,A*25
$WIMDA,30.2239,I,1.0235,B,17.7,C,,,43.3,,5.0,C,149.2,T,146.3,M,0.6,N,0.3,M*5E
$GPZDA,110213.80,13,02,2015,00,00*68
$YXXDR,C,,C,WCHR,C,,C,WCHT,C,,C,HINX,P,1.0235,B,STNP*4E
$HCHDT,8.9,T*28
$YXXDR,A,-0.6,D,PTCH,A,1.1,D,ROLL*76
$WIMWV,164.0,R,0.5,N,A*25
$GPGGA,110214.40,4336.8587,N,01330.0204,E,1,6,2.6,0.0,M,45.4,M,,*5F
$HCHDT,8.9,T*28
$GPVTG,322.3,T,319.4,M,0.0,N,0.0,K,A*2C
$WIMWV,181.6,R,0.7,N,A*2A
$WIMDA,30.2239,I,1.0235,B,17.7,C,,,43.3,,5.0,C,190.6,T,187.7,M,0.7,N,0.4,M*51
$GPZDA,110214.80,13,02,2015,00,00*6F
$YXXDR,C,,C,WCHR,C,,C,WCHT,C,,C,HINX,P,1.0235,B,STNP*4E
$HCHDT,8.9,T*28
$YXXDR,A,-0.7,D,PTCH,A,1.1,D,ROLL*77
$WIMWV,181.6,R,0.7,N,A*2A
$GPGGA,110215.40,4336.8587,N,01330.0204,E,1,6,2.6,0.0,M,45.4,M,,*5E
$HCHDT,8.9,T*28
$GPVTG,322.3,T,319.4,M,0.0,N,0.0,K,A*2C
$WIMWV,181.6,R,0.8,N,A*25
$WIMDA,30.2239,I,1.0235,B,17.7,C,,,43.3,,5.0,C,190.5,T,187.6,M,0.8,N,0.4,M*5C
$GPZDA,110215.80,13,02,2015,00,00*6E
$YXXDR,C,,C,WCHR,C,,C,WCHT,C,,C,HINX,P,1.0235,B,STNP*4E
$HCHDT,8.9,T*28
$YXXDR,A,-0.6,D,PTCH,A,1.1,D,ROLL*76
$WIMWV,181.6,R,0.7,N,A*2A
$GPGGA,110216.40,4336.8587,N,01330.0204,E,1,6,2.6,0.0,M,45.4,M,,*5D
$HCHDT,8.9,T*28
$GPVTG,322.3,T,319.4,M,0.0,N,0.0,K,A*2C
$WIMWV,159.6,R,0.7,N,A*2F
$WIMDA,30.2269,I,1.0236,B,17.6,C,,,43.4,,5.0,C,168.4,T,165.5,M,0.7,N,0.4,M*5A
$GPZDA,110216.80,13,02,2015,00,00*6D
$YXXDR,C,,C,WCHR,C,,C,WCHT,C,,C,HINX,P,1.0236,B,STNP*4D
$HCHDT,8.8,T*29
$YXXDR,A,-0.6,D,PTCH,A,1.1,D,ROLL*76
$WIMWV,166.4,R,0.8,N,A*2E
$GPGGA,110217.40,4336.8587,N,01330.0204,E,1,6,2.6,0.0,M,45.4,M,,*5C
$HCHDT,8.9,T*28
$GPVTG,322.3,T,319.4,M,0.0,N,0.0,K,A*2C
$WIMWV,192.2,R,1.1,N,A*2B
$WIMDA,30.2239,I,1.0235,B,17.6,C,,,43.4,,5.0,C,201.1,T,198.2,M,1.1,N,0.6,M*55
$GPZDA,110217.80,13,02,2015,00,00*6C
$YXXDR,C,,C,WCHR,C,,C,WCHT,C,,C,HINX,P,1.0235,B,STNP*4E
$HCHDT,8.9,T*28
$YXXDR,A,-0.7,D,PTCH,A,1.1,D,ROLL*77
$WIMWV,190.2,R,1.1,N,A*29
$GPGGA,110218.40,4336.8587,N,01330.0204,E,1,6,2.6,0.0,M,45.4,M,,*53
$HCHDT,8.8,T*29
$GPVTG,322.3,T,319.4,M,0.0,N,0.0,K,A*2C
$WIMWV,197.1,R,1.4,N,A*28
$WIMDA,30.2269,I,1.0236,B,17.6,C,,,43.4,,5.0,C,205.9,T,203.0,M,1.4,N,0.7,M*58
$GPZDA,110218.80,13,02,2015,00,00*63
$YXXDR,C,,C,WCHR,C,,C,WCHT,C,,C,HINX,P,1.0236,B,STNP*4D
$HCHDT,8.9,T*28
$YXXDR,A,-0.7,D,PTCH,A,1.3,D,ROLL*75
$WIMWV,202.7,R,1.7,N,A*22
$GPGGA,110219.40,4336.8587,N,01330.0204,E,1,6,2.6,0.0,M,45.4,M,,*52
$HCHDT,8.9,T*28
$GPVTG,322.3,T,319.4,M,0.0,N,0.0,K,A*2C
$WIMWV,203.5,R,1.9,N,A*2F
$WIMDA,30.2239,I,1.0235,B,17.6,C,,,43.4,,5.0,C,212.4,T,209.5,M,1.9,N,1.0,M*51
$GPZDA,110219.80,13,02,2015,00,00*62
$YXXDR,C,,C,WCHR,C,,C,WCHT,C,,C,HINX,P,1.0235,B,STNP*4E
$HCHDT,8.9,T*28
$YXXDR,A,-0.7,D,PTCH,A,1.3,D,ROLL*75
$WIMWV,209.3,R,1.9,N,A*23
$GPGGA,110220.40,4336.8587,N,01330.0204,E,1,6,2.6,0.0,M,45.4,M,,*58
$HCHDT,8.9,T*28
$GPVTG,322.3,T,319.4,M,0.0,N,0.0,K,A*2C
$WIMWV,210.4,R,2.4,N,A*22
$WIMDA,30.2239,I,1.0235,B,17.6,C,,,43.5,,5.0,C,219.4,T,216.5,M,2.4,N,1.2,M*59
$GPZDA,110220.80,13,02,2015,00,00*68
$YXXDR,C,,C,WCHR,C,,C,WCHT,C,,C,HINX,P,1.0235,B,STNP*4E
$HCHDT,8.9,T*28
$YXXDR,A,-0.6,D,PTCH,A,1.2,D,ROLL*75
$WIMWV,211.7,R,2.8,N,A*2C
$GPGGA,110221.40,4336.8587,N,01330.0204,E,1,6,2.6,0.0,M,45.4,M,,*59
$HCHDT,8.9,T*28
$GPVTG,322.3,T,319.4,M,0.0,N,0.0,K,A*2C
$WIMWV,211.9,R,2.9,N,A*23
$WIMDA,30.2239,I,1.0235,B,17.6,C,,,43.5,,5.0,C,220.9,T,218.0,M,2.9,N,1.5,M*5F
$GPZDA,110221.80,13,02,2015,00,00*69
$YXXDR,C,,C,WCHR,C,,C,WCHT,C,,C,HINX,P,1.0235,B,STNP*4E
$HCHDT,8.9,T*28
$YXXDR,A,-0.6,D,PTCH,A,1.1,D,ROLL*76
$WIMWV,214.6,R,2.9,N,A*29
$GPGGA,110222.40,4336.8587,N,01330.0204,E,1,6,2.6,0.0,M,45.4,M,,*5A
$HCHDT,8.9,T*28
$GPVTG,322.3,T,319.4,M,0.0,N,0.0,K,A*2C
$WIMWV,212.9,R,3.0,N,A*28
$WIMDA,30.2239,I,1.0235,B,17.6,C,,,43.5,,5.0,C,221.8,T,218.9,M,3.0,N,1.5,M*5E
$GPZDA,110222.80,13,02,2015,00,00*6A
$YXXDR,C,,C,WCHR,C,,C,WCHT,C,,C,HINX,P,1.0235,B,STNP*4E
$HCHDT,8.9,T*28
$YXXDR,A,-0.6,D,PTCH,A,1.1,D,ROLL*76
$WIMWV,215.2,R,2.5,N,A*20
$GPGGA,110223.40,4336.8586,N,01330.0201,E,1,7,1.5,0.0,M,45.4,M,,*5E
$HCHDT,8.9,T*28
$GPVTG,322.3,T,319.4,M,0.0,N,0.0,K,A*2C
$WIMWV,210.5,R,2.3,N,A*24
$WIMDA,30.2239,I,1.0235,B,17.5,C,,,43.5,,4.9,C,219.4,T,216.5,M,2.3,N,1.2,M*55
$GPZDA,110223.80,13,02,2015,00,00*6B
$YXXDR,C,,C,WCHR,C,,C,WCHT,C,,C,HINX,P,1.0235,B,STNP*4E
$HCHDT,8.9,T*28
$YXXDR,A,-0.6,D,PTCH,A,1.1,D,ROLL*76
$WIMWV,212.7,R,2.6,N,A*21
$GPGGA,110224.40,4336.8586,N,01330.0201,E,1,7,1.5,0.0,M,45.4,M,,*59
$HCHDT,8.9,T*28
$GPVTG,322.3,T,319.4,M,0.0,N,0.0,K,A*2C
$WIMWV,210.9,R,2.4,N,A*2F
$WIMDA,30.2239,I,1.0235,B,17.5,C,,,43.6,,4.9,C,219.8,T,216.9,M,2.4,N,1.2,M*51
$GPZDA,110224.80,13,02,2015,00,00*6C
$YXXDR,C,,C,WCHR,C,,C,WCHT,C,,C,HINX,P,1.0235,B,STNP*4E
$HCHDT,8.9,T*28
$YXXDR,A,-0.6,D,PTCH,A,1.1,D,ROLL*76
$WIMWV,210.4,R,2.7,N,A*21
$GPGGA,110225.40,4336.8586,N,01330.0201,E,1,7,1.5,0.0,M,45.4,M,,*58
$HCHDT,8.9,T*28
$GPVTG,322.3,T,319.4,M,0.0,N,0.0,K,A*2C
$WIMWV,211.2,R,2.4,N,A*25
$WIMDA,30.2239,I,1.0235,B,17.5,C,,,43.6,,4.9,C,220.1,T,217.2,M,2.4,N,1.2,M*58
$GPZDA,110225.80,13,02,2015,00,00*6D
$YXXDR,C,,C,WCHR,C,,C,WCHT,C,,C,HINX,P,1.0235,B,STNP*4E
$HCHDT,8.9,T*28
$YXXDR,A,-0.6,D,PTCH,A,1.1,D,ROLL*76
$WIMWV,210.0,R,2.7,N,A*25
$GPGGA,110226.40,4336.8586,N,01330.0201,E,1,7,1.5,0.0,M,45.4,M,,*5B
$HCHDT,8.9,T*28
$GPVTG,322.3,T,319.4,M,0.0,N,0.0,K,A*2C
$WIMWV,215.2,R,2.7,N,A*22
$WIMDA,30.2269,I,1.0236,B,17.5,C,,,43.6,,4.9,C,224.2,T,221.3,M,2.7,N,1.4,M*58
$GPZDA,110226.80,13,02,2015,00,00*6E
$YXXDR,C,,C,WCHR,C,,C,WCHT,C,,C,HINX,P,1.0236,B,STNP*4D
$HCHDT,8.9,T*28
$YXXDR,A,-0.6,D,PTCH,A,1.1,D,ROLL*76
$WIMWV,211.7,R,2.9,N,A*2D
$GPGGA,110227.40,4336.8586,N,01330.0201,E,1,7,1.5,0.0,M,45.4,M,,*5A
$HCHDT,8.9,T*28
$GPVTG,322.3,T,319.4,M,0.0,N,0.0,K,A*2C
$WIMWV,209.7,R,2.7,N,A*2A
$WIMDA,30.2239,I,1.0235,B,17.5,C,,,43.7,,5.0,C,218.6,T,215.7,M,2.7,N,1.4,M*5F
$GPZDA,110227.80,13,02,2015,00,00*6F
$YXXDR,C,,C,WCHR,C,,C,WCHT,C,,C,HINX,P,1.0235,B,STNP*4E
$HCHDT,8.9,T*28
$YXXDR,A,-0.7,D,PTCH,A,1.1,D,ROLL*77
$WIMWV,209.9,R,2.6,N,A*25
$GPGGA,110228.40,4336.8586,N,01330.0201,E,1,7,1.5,0.0,M,45.4,M,,*55
$HCHDT,8.9,T*28
$GPVTG,322.3,T,319.4,M,0.0,N,0.0,K,A*2C
$WIMWV,209.8,R,2.5,N,A*27
$WIMDA,30.2239,I,1.0235,B,17.5,C,,,43.7,,5.0,C,218.8,T,215.9,M,2.5,N,1.3,M*5A
$GPZDA,110228.80,13,02,2015,00,00*60
$YXXDR,C,,C,WCHR,C,,C,WCHT,C,,C,HINX,P,1.0235,B,STNP*4E
$HCHDT,8.9,T*28
$YXXDR,A,-0.6,D,PTCH,A,1.0,D,ROLL*77
$WIMWV,207.1,R,2.0,N,A*25
$GPGGA,110229.40,4336.8586,N,01330.0201,E,1,7,1.5,0.0,M,45.4,M,,*54
$HCHDT,8.9,T*28
$GPVTG,322.3,T,319.4,M,0.0,N,0.0,K,A*2C
$WIMWV,210.6,R,1.8,N,A*2F
$WIMDA,30.2269,I,1.0236,B,17.5,C,,,43.8,,5.0,C,219.5,T,216.6,M,1.7,N,0.9,M*59
$GPZDA,110229.80,13,02,2015,00,00*61
$YXXDR,C,,C,WCHR,C,,C,WCHT,C,,C,HINX,P,1.0236,B,STNP*4D
$HCHDT,8.9,T*28
$YXXDR,A,-0.6,D,PTCH,A,1.1,D,ROLL*76
$WIMWV,209.9,R,1.8,N,A*28
$GPGGA,110230.40,4336.8586,N,01330.0201,E,1,7,1.5,0.0,M,45.4,M,,*5C
$HCHDT,8.9,T*28
$GPVTG,322.3,T,319.4,M,0.0,N,0.0,K,A*2C
$WIMWV,206.4,R,2.1,N,A*20
$WIMDA,30.2269,I,1.0236,B,17.5,C,,,43.8,,5.0,C,215.3,T,212.4,M,2.1,N,1.1,M*59
$GPZDA,110230.80,13,02,2015,00,00*69
$YXXDR,C,,C,WCHR,C,,C,WCHT,C,,C,HINX,P,1.0236,B,STNP*4D
$HCHDT,8.9,T*28
$YXXDR,A,-0.7,D,PTCH,A,1.1,D,ROLL*77
$WIMWV,208.8,R,2.3,N,A*20
$GPGGA,110231.40,4336.8586,N,01330.0201,E,1,7,1.5,0.0,M,45.4,M,,*5D
$HCHDT,8.9,T*28
$GPVTG,322.3,T,319.4,M,0.0,N,0.0,K,A*2C
$WIMWV,209.3,R,2.5,N,A*2C
$WIMDA,30.2239,I,1.0235,B,17.5,C,,,43.8,,5.0,C,218.3,T,215.4,M,2.4,N,1.2,M*53
$GPZDA,110231.80,13,02,2015,00,00*68
$YXXDR,C,,C,WCHR,C,,C,WCHT,C,,C,HINX,P,1.0235,B,STNP*4E
$HCHDT,8.9,T*28
$YXXDR,A,-0.7,D,PTCH,A,1.1,D,ROLL*77
$WIMWV,210.5,R,2.9,N,A*2E
$GPGGA,110232.40,4336.8586,N,01330.0201,E,1,7,1.5,0.0,M,45.4,M,,*5E
$HCHDT,8.9,T*28
$GPVTG,322.3,T,319.4,M,0.0,N,0.0,K,A*2C
$WIMWV,209.4,R,2.7,N,A*29
$WIMDA,30.2269,I,1.0236,B,17.5,C,,,43.8,,5.0,C,218.3,T,215.4,M,2.7,N,1.4,M*50
$GPZDA,110232.80,13,02,2015,00,00*6B
$YXXDR,C,,C,WCHR,C,,C,WCHT,C,,C,HINX,P,1.0236,B,STNP*4D
$HCHDT,8.9,T*28
$YXXDR,A,-0.7,D,PTCH,A,1.1,D,ROLL*77
$WIMWV,207.4,R,2.5,N,A*25
$GPGGA,110233.40,4336.8586,N,01330.0201,E,1,7,1.5,0.0,M,45.4,M,,*5F
$HCHDT,8.9,T*28
$GPVTG,322.3,T,319.4,M,0.0,N,0.0,K,A*2C
$WIMWV,208.0,R,2.5,N,A*2E
$WIMDA,30.2239,I,1.0235,B,17.5,C,,,43.8,,5.0,C,216.9,T,214.0,M,2.5,N,1.3,M*52
$GPZDA,110233.80,13,02,2015,00,00*6A
$YXXDR,C,,C,WCHR,C,,C,WCHT,C,,C,HINX,P,1.0235,B,STNP*4E
$HCHDT,8.9,T*28
$YXXDR,A,-0.6,D,PTCH,A,1.0,D,ROLL*77
$WIMWV,210.0,R,2.9,N,A*2B
$GPGGA,110234.40,4336.8586,N,01330.0201,E,1,7,1.5,0.0,M,45.4,M,,*58
$HCHDT,8.9,T*28
$GPVTG,322.3,T,319.4,M,0.0,N,0.0,K,A*2C
$WIMWV,211.7,R,3.0,N,A*25
$WIMDA,30.2298,I,1.0237,B,17.5,C,,,43.8,,5.0,C,220.6,T,217.7,M,3.0,N,1.5,M*57
$GPZDA,110234.80,13,02,2015,00,00*6D
$YXXDR,C,,C,WCHR,C,,C,WCHT,C,,C,HINX,P,1.0237,B,STNP*4C
$HCHDT,8.9,T*28
$YXXDR,A,-0.6,D,PTCH,A,1.1,D,ROLL*76
$WIMWV,211.1,R,2.9,N,A*2B
$GPGGA,110235.40,4336.8586,N,01330.0201,E,1,7,1.5,0.0,M,45.4,M,,*59
$HCHDT,8.9,T*28
$GPVTG,322.3,T,319.4,M,0.0,N,0.0,K,A*2C
$WIMWV,208.4,R,2.2,N,A*2D
$WIMDA,30.2239,I,1.0235,B,17.4,C,,,43.8,,4.9,C,217.4,T,214.5,M,2.2,N,1.1,M*57
$GPZDA,110235.80,13,02,2015,00,00*6C
$YXXDR,C,,C,WCHR,C,,C,WCHT,C,,C,HINX,P,1.0235,B,STNP*4E
$HCHDT,8.9,T*28
$YXXDR,A,-0.6,D,PTCH,A,1.1,D,ROLL*76
$WIMWV,201.6,R,1.6,N,A*21
$GPGGA,110236.40,4336.8586,N,01330.0201,E,1,7,1.5,0.0,M,45.4,M,,*5A
$HCHDT,8.9,T*28
$GPVTG,322.3,T,319.4,M,0.0,N,0.0,K,A*2C
$WIMWV,171.3,R,1.8,N,A*2E
$WIMDA,30.2210,I,1.0234,B,17.4,C,,,43.8,,4.9,C,180.3,T,177.4,M,1.8,N,0.9,M*50
$GPZDA,110236.80,13,02,2015,00,00*6F
$YXXDR,C,,C,WCHR,C,,C,WCHT,C,,C,HINX,P,1.0234,B,STNP*4F
$HCHDT,8.9,T*28
$YXXDR,A,-0.6,D,PTCH,A,1.1,D,ROLL*76
$WIMWV,189.9,R,2.4,N,A*2C
$GPGGA,110237.40,4336.8586,N,01330.0201,E,1,7,1.5,0.0,M,45.4,M,,*5B
$HCHDT,8.9,T*28
$GPVTG,322.3,T,319.4,M,0.0,N,0.0,K,A*2C
$WIMWV,201.8,R,2.7,N,A*2D
$WIMDA,30.2239,I,1.0235,B,17.4,C,,,43.8,,4.9,C,210.7,T,207.8,M,2.7,N,1.4,M*5C
$GPZDA,110237.80,13,02,2015,00,00*6E
$YXXDR,C,,C,WCHR,C,,C,WCHT,C,,C,HINX,P,1.0235,B,STNP*4E
$HCHDT,8.9,T*28
$YXXDR,A,-0.6,D,PTCH,A,1.1,D,ROLL*76
$WIMWV,206.0,R,2.5,N,A*20
$GPGGA,110238.40,4336.8586,N,01330.0201,E,1,7,1.5,0.0,M,45.4,M,,*54
$HCHDT,8.9,T*28
$GPVTG,322.3,T,319.4,M,0.0,N,0.0,K,A*2C
$WIMWV,202.3,R,1.7,N,A*26
$WIMDA,30.2210,I,1.0234,B,17.4,C,,,43.8,,4.9,C,211.3,T,208.4,M,1.7,N,0.9,M*5F
$GPZDA,110238.80,13,02,2015,00,00*61
$YXXDR,C,,C,WCHR,C,,C,WCHT,C,,C,HINX,P,1.0234,B,STNP*4F
$HCHDT,8.9,T*28
$YXXDR,A,-0.6,D,PTCH,A,1.1,D,ROLL*76
$WIMWV,201.9,R,1.0,N,A*28
$GPGGA,110239.40,4336.8586,N,01330.0201,E,1,7,1.5,0.0,M,45.4,M,,*55
$HCHDT,8.9,T*28
$GPVTG,322.3,T,319.4,M,0.0,N,0.0,K,A*2C
$WIMWV,151.8,R,0.7,N,A*29
$WIMDA,30.2239,I,1.0235,B,17.4,C,,,43.8,,4.9,C,160.6,T,157.7,M,0.7,N,0.4,M*53
$GPZDA,110239.80,13,02,2015,00,00*60
$YXXDR,C,,C,WCHR,C,,C,WCHT,C,,C,HINX,P,1.0235,B,STNP*4E
$HCHDT,8.9,T*28
$YXXDR,A,-0.6,D,PTCH,A,1.1,D,ROLL*76
$WIMWV,171.0,R,1.2,N,A*27
$GPGGA,110240.40,4336.8586,N,01330.0201,E,1,6,2.7,0.0,M,45.4,M,,*5B
$HCHDT,8.9,T*28
$GPVTG,322.3,T,319.4,M,0.0,N,0.0,K,A*2C
$WIMWV,201.0,R,1.2,N,A*23
$WIMDA,30.2269,I,1.0236,B,17.4,C,,,43.8,,4.9,C,209.9,T,207.0,M,1.2,N,0.6,M*51
$GPZDA,110240.80,13,02,2015,00,00*6E
$YXXDR,C,,C,WCHR,C,,C,WCHT,C,,C,HINX,P,1.0236,B,STNP*4D
$HCHDT,8.9,T*28
$YXXDR,A,-0.6,D,PTCH,A,1.1,D,ROLL*76
$WIMWV,197.9,R,0.7,N,A*22
$GPGGA,110241.40,4336.8586,N,01330.0201,E,1,6,2.7,0.0,M,45.4,M,,*5A
$HCHDT,8.9,T*28
$GPVTG,322.3,T,319.4,M,0.0,N,0.0,K,A*2C
$WIMWV,181.6,R,0.4,N,A*29
$WIMDA,30.2239,I,1.0235,B,17.4,C,,,43.8,,4.9,C,190.5,T,187.6,M,0.4,N,0.2,M*56
$GPZDA,110241.80,13,02,2015,00,00*6F
$YXXDR,C,,C,WCHR,C,,C,WCHT,C,,C,HINX,P,1.0235,B,STNP*4E
$HCHDT,8.9,T*28
$YXXDR,A,-0.6,D,PTCH,A,1.1,D,ROLL*76
$WIMWV,181.6,R,0.8,N,A*25
$GPGGA,110242.40,4336.8586,N,01330.0201,E,1,6,2.7,0.0,M,45.4,M,,*59
$HCHDT,8.9,T*28
$GPVTG,322.3,T,319.4,M,0.0,N,0.0,K,A*2C
$WIMWV,181.6,R,0.8,N,A*25
$WIMDA,30.2239,I,1.0235,B,17.3,C,,,43.9,,4.8,C,190.5,T,187.6,M,0.8,N,0.4,M*5B
$GPZDA,110242.80,13,02,2015,00,00*6C
$YXXDR,C,,C,WCHR,C,,C,WCHT,C,,C,HINX,P,1.0235,B,STNP*4E
$HCHDT,8.9,T*28
$YXXDR,A,-0.6,D,PTCH,A,1.0,D,ROLL*77
$WIMWV,181.6,R,0.9,N,A*24
$GPGGA,110243.40,4336.8586,N,01330.0201,E,1,7,1.5,0.0,M,45.4,M,,*58
$HCHDT,8.9,T*28
$GPVTG,322.3,T,319.4,M,0.0,N,0.0,K,A*2C
$WIMWV,204.1,R,1.5,N,A*20
$WIMDA,30.2239,I,1.0235,B,17.3,C,,,43.9,,4.8,C,213.0,T,210.1,M,1.4,N,0.7,M*52
$GPZDA,110243.80,13,02,2015,00,00*6D
$YXXDR,C,,C,WCHR,C,,C,WCHT,C,,C,HINX,P,1.0235,B,STNP*4E
$HCHDT,8.9,T*28
$YXXDR,A,-0.6,D,PTCH,A,1.1,D,ROLL*76
$WIMWV,197.8,R,1.8,N,A*2D
$GPGGA,110244.40,4336.8586,N,01330.0201,E,1,6,2.7,0.0,M,45.4,M,,*5F
$HCHDT,8.9,T*28
$GPVTG,322.3,T,319.4,M,0.0,N,0.0,K,A*2C
$WIMWV,199.7,R,2.3,N,A*24
$WIMDA,30.2239,I,1.0235,B,17.3,C,,,43.9,,4.8,C,208.6,T,205.7,M,2.3,N,1.2,M*5C
$GPZDA,110244.80,13,02,2015,00,00*6A
$YXXDR,C,,C,WCHR,C,,C,WCHT,C,,C,HINX,P,1.0235,B,STNP*4E
$HCHDT,8.9,T*28
$YXXDR,A,-0.6,D,PTCH,A,1.1,D,ROLL*76
$WIMWV,202.5,R,2.6,N,A*22
$GPGGA,110245.40,4336.8586,N,01330.0201,E,1,6,2.7,0.0,M,45.4,M,,*5E
$HCHDT,8.9,T*28
$GPVTG,322.3,T,319.4,M,0.0,N,0.0,K,A*2C
$WIMWV,200.3,R,2.7,N,A*27
$WIMDA,30.2239,I,1.0235,B,17.3,C,,,43.9,,4.8,C,209.3,T,206.4,M,2.6,N,1.3,M*5C
$GPZDA,110245.80,13,02,2015,00,00*6B
$YXXDR,C,,C,WCHR,C,,C,WCHT,C,,C,HINX,P,1.0235,B,STNP*4E
$HCHDT,8.9,T*28
$YXXDR,A,-0.6,D,PTCH,A,1.1,D,ROLL*76
$WIMWV,203.8,R,2.4,N,A*2C
$GPGGA,110246.40,4336.8586,N,01330.0201,E,1,6,2.7,0.0,M,45.4,M,,*5D
$HCHDT,8.9,T*28
$GPVTG,322.3,T,319.4,M,0.0,N,0.0,K,A*2C
$WIMWV,208.0,R,2.0,N,A*2B
$WIMDA,30.2269,I,1.0236,B,17.3,C,,,43.9,,4.8,C,217.0,T,214.1,M,2.0,N,1.0,M*55
$GPZDA,110246.80,13,02,2015,00,00*68
$YXXDR,C,,C,WCHR,C,,C,WCHT,C,,C,HINX,P,1.0236,B,STNP*4D
$HCHDT,8.9,T*28
$YXXDR,A,-0.6,D,PTCH,A,1.0,D,ROLL*77
$WIMWV,204.6,R,2.2,N,A*23
$GPGGA,110247.40,4336.8586,N,01330.0201,E,1,6,2.7,0.0,M,45.4,M,,*5C
$HCHDT,8.9,T*28
$GPVTG,322.3,T,319.4,M,0.0,N,0.0,K,A*2C
$WIMWV,205.9,R,2.2,N,A*2D
$WIMDA,30.2269,I,1.0236,B,17.3,C,,,44.0,,4.9,C,214.8,T,211.9,M,2.2,N,1.1,M*5F
$GPZDA,110247.80,13,02,2015,00,00*69
$YXXDR,C,,C,WCHR,C,,C,WCHT,C,,C,HINX,P,1.0236,B,STNP*4D
$HCHDT,8.9,T*28
$YXXDR,A,-0.6,D,PTCH,A,1.0,D,ROLL*77
$WIMWV,205.4,R,2.1,N,A*23
$GPGGA,110248.40,4336.8586,N,01330.0201,E,1,6,2.7,0.0,M,45.4,M,,*53
$HCHDT,8.9,T*28
$GPVTG,322.3,T,319.4,M,0.0,N,0.0,K,A*2C
$WIMWV,208.0,R,1.8,N,A*20
$WIMDA,30.2269,I,1.0236,B,17.3,C,,,43.9,,4.8,C,216.9,T,214.0,M,1.8,N,0.9,M*5F
$GPZDA,110248.80,13,02,2015,00,00*66
$YXXDR,C,,C,WCHR,C,,C,WCHT,C,,C,HINX,P,1.0236,B,STNP*4D
$HCHDT,8.9,T*28
$YXXDR,A,-0.6,D,PTCH,A,1.1,D,ROLL*76
$WIMWV,203.1,R,2.1,N,A*20
$GPGGA,110249.40,4336.8586,N,01330.0201,E,1,6,2.7,0.0,M,45.4,M,,*52
$HCHDT,8.9,T*28
$GPVTG,322.3,T,319.4,M,0.0,N,0.0,K,A*2C
$WIMWV,203.6,R,2.3,N,A*25
$WIMDA,30.2269,I,1.0236,B,17.3,C,,,44.0,,4.9,C,212.6,T,209.7,M,2.3,N,1.2,M*52
$GPZDA,110249.80,13,02,2015,00,00*67
$YXXDR,C,,C,WCHR,C,,C,WCHT,C,,C,HINX,P,1.0236,B,STNP*4D
$HCHDT,8.9,T*28
$YXXDR,A,-0.6,D,PTCH,A,1.1,D,ROLL*76
$WIMWV,208.0,R,2.3,N,A*28
$GPGGA,110250.40,4336.8586,N,01330.0201,E,1,6,2.7,0.0,M,45.4,M,,*5A
$HCHDT,8.9,T*28
$GPVTG,322.3,T,319.4,M,0.0,N,0.0,K,A*2C
$WIMWV,208.8,R,2.3,N,A*20
$WIMDA,30.2239,I,1.0235,B,17.3,C,,,44.0,,4.9,C,217.7,T,214.8,M,2.3,N,1.2,M*53
$GPZDA,110250.80,13,02,2015,00,00*6F
$YXXDR,C,,C,WCHR,C,,C,WCHT,C,,C,HINX,P,1.0235,B,STNP*4E
$HCHDT,8.9,T*28
$YXXDR,A,-0.6,D,PTCH,A,1.1,D,ROLL*76
$WIMWV,206.7,R,2.3,N,A*21
$GPGGA,110251.40,4336.8586,N,01330.0201,E,1,6,2.7,0.0,M,45.4,M,,*5B
$HCHDT,8.9,T*28
$GPVTG,322.3,T,319.4,M,0.0,N,0.0,K,A*2C
$WIMWV,205.4,R,2.1,N,A*23
$WIMDA,30.2239,I,1.0235,B,17.3,C,,,44.0,,4.9,C,214.4,T,211.5,M,2.1,N,1.1,M*5A
$GPZDA,110251.80,13,02,2015,00,00*6E
$YXXDR,C,,C,WCHR,C,,C,WCHT,C,,C,HINX,P,1.0235,B,STNP*4E
$HCHDT,8.9,T*28
$YXXDR,A,-0.6,D,PTCH,A,1.1,D,ROLL*76
$WIMWV,204.5,R,1.9,N,A*28
$GPGGA,110252.40,4336.8586,N,01330.0201,E,1,6,2.7,0.0,M,45.4,M,,*58
$HCHDT,8.9,T*28
$GPVTG,322.3,T,319.4,M,0.0,N,0.0,K,A*2C
$WIMWV,203.8,R,1.9,N,A*22
$WIMDA,30.2239,I,1.0235,B,17.3,C,,,44.0,,4.9,C,212.8,T,209.9,M,1.9,N,1.0,M*5F
$GPZDA,110252.80,13,02,2015,00,00*6D
$YXXDR,C,,C,WCHR,C,,C,WCHT,C,,C,HINX,P,1.0235,B,STNP*4E
$HCHDT,8.9,T*28
$YXXDR,A,-0.6,D,PTCH,A,1.1,D,ROLL*76
$WIMWV,194.3,R,1.9,N,A*24
$GPGGA,110253.40,4336.8586,N,01330.0201,E,1,6,2.7,0.0,M,45.4,M,,*59
$HCHDT,8.9,T*28
$GPVTG,322.3,T,319.4,M,0.0,N,0.0,K,A*2C
$WIMWV,192.6,R,1.8,N,A*26
$WIMDA,30.2269,I,1.0236,B,17.3,C,,,44.0,,4.9,C,201.5,T,198.6,M,1.8,N,0.9,M*5B
$GPZDA,110253.80,13,02,2015,00,00*6C
$YXXDR,C,,C,WCHR,C,,C,WCHT,C,,C,HINX,P,1.0236,B,STNP*4D
$HCHDT,8.9,T*28
$YXXDR,A,-0.6,D,PTCH,A,1.1,D,ROLL*76
$WIMWV,189.5,R,1.9,N,A*2E
$GPGGA,110254.40,4336.8586,N,01330.0201,E,1,6,2.7,0.0,M,45.4,M,,*5E
$HCHDT,8.9,T*28
$GPVTG,322.3,T,319.4,M,0.0,N,0.0,K,A*2C
$WIMWV,181.6,R,2.2,N,A*2D
$WIMDA,30.2239,I,1.0235,B,17.3,C,,,44.1,,4.9,C,190.6,T,187.7,M,2.1,N,1.1,M*58
$GPZDA,110254.80,13,02,2015,00,00*6B
$YXXDR,C,,C,WCHR,C,,C,WCHT,C,,C,HINX,P,1.0235,B,STNP*4E
$HCHDT,8.9,T*28
$YXXDR,A,-0.6,D,PTCH,A,1.1,D,ROLL*76
$WIMWV,160.6,R,2.0,N,A*20
$GPGGA,110255.40,4336.8586,N,01330.0201,E,1,6,2.7,0.0,M,45.4,M,,*5F
$HCHDT,8.9,T*28
$GPVTG,322.3,T,319.4,M,0.0,N,0.0,K,A*2C
$WIMWV,123.9,R,1.6,N,A*2D
$WIMDA,30.2239,I,1.0235,B,17.2,C,,,44.1,,4.8,C,132.8,T,129.9,M,1.6,N,0.8,M*58
$GPZDA,110255.80,13,02,2015,00,00*6A
$YXXDR,C,,C,WCHR,C,,C,WCHT,C,,C,HINX,P,1.0235,B,STNP*4E
$HCHDT,8.9,T*28
$YXXDR,A,-0.6,D,PTCH,A,1.1,D,ROLL*76
$WIMWV,127.0,R,1.5,N,A*23
$GPGGA,110256.40,4336.8586,N,01330.0201,E,1,6,2.7,0.0,M,45.4,M,,*5C
$HCHDT,8.9,T*28
$GPVTG,322.3,T,319.4,M,0.0,N,0.0,K,A*2C
$WIMWV,141.1,R,1.5,N,A*22
$WIMDA,30.2269,I,1.0236,B,17.2,C,,,44.1,,4.8,C,150.0,T,147.1,M,1.5,N,0.8,M*51
$GPZDA,110256.80,13,02,2015,00,00*69
$YXXDR,C,,C,WCHR,C,,C,WCHT,C,,C,HINX,P,1.0236,B,STNP*4D
$HCHDT,8.9,T*28
$YXXDR,A,-0.6,D,PTCH,A,1.1,D,ROLL*76
$WIMWV,157.6,R,1.0,N,A*27
$GPGGA,110257.40,4336.8586,N,01330.0201,E,1,7,1.5,0.0,M,45.4,M,,*5D
$HCHDT,8.9,T*28
$GPVTG,322.3,T,319.4,M,0.0,N,0.0,K,A*2C
$WIMWV,138.5,R,0.6,N,A*2A
$WIMDA,30.2239,I,1.0235,B,17.2,C,,,44.1,,4.8,C,147.3,T,144.4,M,0.6,N,0.3,M*5D
$GPZDA,110257.80,13,02,2015,00,00*68
$YXXDR,C,,C,WCHR,C,,C,WCHT,C,,C,HINX,P,1.0235,B,STNP*4E
$HCHDT,8.9,T*28
$YXXDR,A,-0.6,D,PTCH,A,1.1,D,ROLL*76
$WIMWV,63.0,R,0.5,N,A*13
$GPGGA,110258.40,4336.8586,N,01330.0201,E,1,7,1.5,0.0,M,45.4,M,,*52
$HCHDT,8.9,T*28
$GPVTG,322.3,T,319.4,M,0.0,N,0.0,K,A*2C
$WIMWV,115.7,R,0.9,N,A*28
$WIMDA,30.2239,I,1.0235,B,17.2,C,,,44.1,,4.8,C,124.5,T,121.6,M,0.9,N,0.5,M*56
$GPZDA,110258.80,13,02,2015,00,00*67
$YXXDR,C,,C,WCHR,C,,C,WCHT,C,,C,HINX,P,1.0235,B,STNP*4E
$HCHDT,8.9,T*28
$YXXDR,A,-0.6,D,PTCH,A,1.1,D,ROLL*76
$WIMWV,158.8,R,1.0,N,A*26
$GPGGA,110259.40,4336.8586,N,01330.0201,E,1,7,1.5,0.0,M,45.4,M,,*53
$HCHDT,8.9,T*28
$GPVTG,322.3,T,319.4,M,0.0,N,0.0,K,A*2C
$WIMWV,163.6,R,1.0,N,A*20
$WIMDA,30.2239,I,1.0235,B,17.1,C,,,44.2,,4.8,C,172.4,T,169.5,M,1.0,N,0.5,M*53
$GPZDA,110259.80,13,02,2015,00,00*66
$YXXDR,C,,C,WCHR,C,,C,WCHT,C,,C,HINX,P,1.0235,B,STNP*4E
$HCHDT,8.9,T*28
$YXXDR,A,-0.6,D,PTCH,A,1.0,D,ROLL*77
$WIMWV,150.0,R,1.2,N,A*24
$GPGGA,110300.40,4336.8586,N,01330.0201,E,1,7,1.5,0.0,M,45.4,M,,*5E
$HCHDT,8.9,T*28
$GPVTG,322.3,T,319.4,M,0.0,N,0.0,K,A*2C
$WIMWV,136.4,R,1.3,N,A*21
$WIMDA,30.2239,I,1.0235,B,17.1,C,,,44.2,,4.8,C,145.3,T,142.4,M,1.3,N,0.7,M*59
$GPZDA,110300.80,13,02,2015,00,00*6B
$YXXDR,C,,C,WCHR,C,,C,WCHT,C,,C,HINX,P,1.0235,B,STNP*4E
$HCHDT,8.9,T*28
$YXXDR,A,-0.6,D,PTCH,A,1.1,D,ROLL*76
$WIMWV,148.4,R,1.7,N,A*2C
$GPGGA,110301.40,4336.8586,N,01330.0201,E,1,7,1.5,0.0,M,45.4,M,,*5F
$HCHDT,8.9,T*28
$GPVTG,322.3,T,319.4,M,0.0,N,0.0,K,A*2C
$WIMWV,147.9,R,2.0,N,A*2A
$WIMDA,30.2239,I,1.0235,B,17.1,C,,,44.2,,4.8,C,156.8,T,153.9,M,2.0,N,1.0,M*5B
$GPZDA,110301.80,13,02,2015,00,00*6A
$YXXDR,C,,C,WCHR,C,,C,WCHT,C,,C,HINX,P,1.0235,B,STNP*4E
$HCHDT,8.9,T*28
$YXXDR,A,-0.6,D,PTCH,A,1.0,D,ROLL*77
$WIMWV,159.9,R,1.4,N,A*22
$GPGGA,110302.40,4336.8586,N,01330.0201,E,1,7,1.5,0.0,M,45.4,M,,*5C
$HCHDT,8.9,T*28
$GPVTG,322.3,T,319.4,M,0.0,N,0.0,K,A*2C
$WIMWV,145.1,R,1.1,N,A*22
$WIMDA,30.2239,I,1.0235,B,17.1,C,,,44.3,,4.8,C,154.0,T,151.1,M,1.1,N,0.6,M*5F
$GPZDA,110302.80,13,02,2015,00,00*69
$YXXDR,C,,C,WCHR,C,,C,WCHT,C,,C,HINX,P,1.0235,B,STNP*4E
$HCHDT,8.9,T*28
$YXXDR,A,-0.6,D,PTCH,A,1.1,D,ROLL*76
$WIMWV,128.9,R,1.1,N,A*21
$GPGGA,110303.40,4336.8586,N,01330.0201,E,1,7,1.5,0.0,M,45.4,M,,*5D
$HCHDT,8.9,T*28
$GPVTG,322.3,T,319.4,M,0.0,N,0.0,K,A*2C
$WIMWV,129.0,R,1.2,N,A*2A
$WIMDA,30.2269,I,1.0236,B,17.1,C,,,44.3,,4.8,C,137.9,T,135.0,M,1.2,N,0.6,M*55
$GPZDA,110303.80,13,02,2015,00,00*68
$YXXDR,C,,C,WCHR,C,,C,WCHT,C,,C,HINX,P,1.0236,B,STNP*4D
$HCHDT,8.9,T*28
$YXXDR,A,-0.6,D,PTCH,A,1.1,D,ROLL*76
$WIMWV,123.4,R,1.0,N,A*26
$GPGGA,110304.40,4336.8586,N,01330.0201,E,1,7,1.5,0.0,M,45.4,M,,*5A
$HCHDT,8.9,T*28
$GPVTG,322.3,T,319.4,M,0.0,N,0.0,K,A*2C
$WIMWV,114.0,R,1.1,N,A*27
$WIMDA,30.2239,I,1.0235,B,17.1,C,,,44.3,,4.8,C,122.8,T,119.9,M,1.1,N,0.6,M*52
$GPZDA,110304.80,13,02,2015,00,00*6F
$YXXDR,C,,C,WCHR,C,,C,WCHT,C,,C,HINX,P,1.0235,B,STNP*4E
$HCHDT,8.9,T*28
$YXXDR,A,-0.6,D,PTCH,A,1.0,D,ROLL*77
$WIMWV,118.9,R,1.2,N,A*21
$GPGGA,110305.40,4336.8586,N,01330.0201,E,1,7,1.5,0.0,M,45.4,M,,*5B
$HCHDT,8.9,T*28
$GPVTG,322.3,T,319.4,M,0.0,N,0.0,K,A*2C
$WIMWV,116.7,R,1.4,N,A*27
$WIMDA,30.2239,I,1.0235,B,17.1,C,,,44.3,,4.8,C,125.5,T,122.6,M,1.3,N,0.7,M*5C
$GPZDA,110305.80,13,02,2015,00,00*6E
$YXXDR,C,,C,WCHR,C,,C,WCHT,C,,C,HINX,P,1.0235,B,STNP*4E
$HCHDT,8.9,T*28
$YXXDR,A,-0.6,D,PTCH,A,1.1,D,ROLL*76
$WIMWV,120.8,R,1.6,N,A*2F
$GPGGA,110306.40,4336.8586,N,01330.0201,E,1,7,1.5,0.0,M,45.4,M,,*58
$HCHDT,8.9,T*28
$GPVTG,322.3,T,319.4,M,0.0,N,0.0,K,A*2C
$WIMWV,121.9,R,1.4,N,A*2D
$WIMDA,30.2239,I,1.0235,B,17.1,C,,,44.4,,4.8,C,130.7,T,127.8,M,1.4,N,0.7,M*51
$GPZDA,110306.80,13,02,2015,00,00*6D
$YXXDR,C,,C,WCHR,C,,C,WCHT,C,,C,HINX,P,1.0235,B,STNP*4E
$HCHDT,8.9,T*28
$YXXDR,A,-0.6,D,PTCH,A,1.0,D,ROLL*77
$WIMWV,132.9,R,1.4,N,A*2F
$GPGGA,110307.40,4336.8586,N,01330.0201,E,1,7,1.5,0.0,M,45.4,M,,*59
$HCHDT,8.9,T*28
$GPVTG,322.3,T,319.4,M,0.0,N,0.0,K,A*2C
$WIMWV,127.7,R,1.5,N,A*24
$WIMDA,30.2269,I,1.0236,B,17.1,C,,,44.4,,4.8,C,136.5,T,133.6,M,1.4,N,0.7,M*58
$GPZDA,110307.80,13,02,2015,00,00*6C
$YXXDR,C,,C,WCHR,C,,C,WCHT,C,,C,HINX,P,1.0236,B,STNP*4D
$HCHDT,8.9,T*28
$YXXDR,A,-0.7,D,PTCH,A,1.1,D,ROLL*77
$WIMWV,132.1,R,1.7,N,A*24
$GPGGA,110308.40,4336.8586,N,01330.0201,E,1,7,1.5,0.0,M,45.4,M,,*56
$HCHDT,8.9,T*28
$GPVTG,322.3,T,319.4,M,0.0,N,0.0,K,A*2C
$WIMWV,139.8,R,2.4,N,A*26
$WIMDA,30.2239,I,1.0235,B,17.1,C,,,44.4,,4.8,C,148.6,T,145.7,M,2.4,N,1.2,M*53
$GPZDA,110308.80,13,02,2015,00,00*63
$YXXDR,C,,C,WCHR,C,,C,WCHT,C,,C,HINX,P,1.0235,B,STNP*4E
$HCHDT,8.9,T*28
$YXXDR,A,-0.6,D,PTCH,A,1.1,D,ROLL*76
$WIMWV,140.8,R,2.0,N,A*2C
$GPGGA,110309.40,4336.8586,N,01330.0201,E,1,7,1.5,0.0,M,45.4,M,,*57
$HCHDT,8.9,T*28
$GPVTG,322.3,T,319.4,M,0.0,N,0.0,K,A*2C
$WIMWV,165.1,R,2.1,N,A*23
$WIMDA,30.2239,I,1.0235,B,17.1,C,,,44.5,,4.9,C,174.0,T,171.1,M,2.1,N,1.1,M*5D
$GPZDA,110309.80,13,02,2015,00,00*62
$YXXDR,C,,C,WCHR,C,,C,WCHT,C,,C,HINX,P,1.0235,B,STNP*4E
$HCHDT,8.9,T*28
$YXXDR,A,-0.6,D,PTCH,A,1.0,D,ROLL*77
$WIMWV,162.8,R,1.8,N,A*27
$GPGGA,110310.40,4336.8586,N,01330.0201,E,1,7,1.5,0.0,M,45.4,M,,*5F
$HCHDT,8.9,T*28
$GPVTG,322.3,T,319.4,M,0.0,N,0.0,K,A*2C
$WIMWV,155.1,R,1.8,N,A*2A
$WIMDA,30.2239,I,1.0235,B,17.1,C,,,44.5,,4.9,C,163.9,T,161.0,M,1.7,N,0.9,M*5E
$GPZDA,110310.80,13,02,2015,00,00*6A
$YXXDR,C,,C,WCHR,C,,C,WCHT,C,,C,HINX,P,1.0235,B,STNP*4E
$HCHDT,8.9,T*28
$YXXDR,A,-0.6,D,PTCH,A,1.1,D,ROLL*76
$WIMWV,157.1,R,2.0,N,A*23
$GPGGA,110311.40,4336.8586,N,01330.0201,E,1,7,1.5,0.0,M,45.4,M,,*5E
$HCHDT,8.9,T*28
$GPVTG,322.3,T,319.4,M,0.0,N,0.0,K,A*2C
$WIMWV,160.3,R,1.9,N,A*2F
$WIMDA,30.2239,I,1.0235,B,17.0,C,,,44.5,,4.8,C,169.1,T,166.2,M,1.9,N,1.0,M*5F
$GPZDA,110311.80,13,02,2015,00,00*6B
$YXXDR,C,,C,WCHR,C,,C,WCHT,C,,C,HINX,P,1.0235,B,STNP*4E
$HCHDT,8.9,T*28
$YXXDR,A,-0.6,D,PTCH,A,1.0,D,ROLL*77
$WIMWV,163.3,R,2.0,N,A*26
$GPGGA,110312.40,4336.8586,N,01330.0201,E,1,7,1.5,0.0,M,45.4,M,,*5D
$HCHDT,8.9,T*28
$GPVTG,322.3,T,319.4,M,0.0,N,0.0,K,A*2C
$WIMWV,173.8,R,2.1,N,A*2D
$WIMDA,30.2269,I,1.0236,B,17.0,C,,,44.5,,4.8,C,182.8,T,179.9,M,2.0,N,1.0,M*5A
$GPZDA,110312.80,13,02,2015,00,00*68
$YXXDR,C,,C,WCHR,C,,C,WCHT,C,,C,HINX,P,1.0236,B,STNP*4D
$HCHDT,8.9,T*28
$YXXDR,A,-0.6,D,PTCH,A,1.1,D,ROLL*76
$WIMWV,181.6,R,2.5,N,A*2A
$GPGGA,110313.40,4336.8586,N,01330.0201,E,1,7,1.5,0.0,M,45.4,M,,*5C
$HCHDT,8.9,T*28
$GPVTG,322.3,T,319.4,M,0.0,N,0.0,K,A*2C
$WIMWV,187.8,R,2.1,N,A*26
$WIMDA,30.2239,I,1.0235,B,17.0,C,,,44.5,,4.8,C,196.7,T,193.8,M,2.1,N,1.1,M*53
$GPZDA,110313.80,13,02,2015,00,00*69
$YXXDR,C,,C,WCHR,C,,C,WCHT,C,,C,HINX,P,1.0235,B,STNP*4E
$HCHDT,8.9,T*28
$YXXDR,A,-0.6,D,PTCH,A,1.1,D,ROLL*76
$WIMWV,187.5,R,2.2,N,A*28
$GPGGA,110314.40,4336.8586,N,01330.0201,E,1,7,1.5,0.0,M,45.4,M,,*5B
$HCHDT,8.9,T*28
$GPVTG,322.3,T,319.4,M,0.0,N,0.0,K,A*2C
$WIMWV,181.6,R,2.3,N,A*2C
$WIMDA,30.2239,I,1.0235,B,17.0,C,,,44.5,,4.8,C,190.6,T,187.7,M,2.3,N,1.2,M*5F
$GPZDA,110314.80,13,02,2015,00,00*6E
$YXXDR,C,,C,WCHR,C,,C,WCHT,C,,C,HINX,P,1.0235,B,STNP*4E
$HCHDT,8.9,T*28
$YXXDR,A,-0.6,D,PTCH,A,1.1,D,ROLL*76
$WIMWV,188.6,R,1.8,N,A*2D
$GPGGA,110315.40,4336.8586,N,01330.0201,E,1,7,1.5,0.0,M,45.4,M,,*5A
$HCHDT,8.9,T*28
$GPVTG,322.3,T,319.4,M,0.0,N,0.0,K,A*2C
$WIMWV,189.2,R,1.5,N,A*25
$WIMDA,30.2239,I,1.0235,B,17.0,C,,,44.6,,4.8,C,198.1,T,195.2,M,1.5,N,0.8,M*5B
$GPZDA,110315.80,13,02,2015,00,00*6F
$YXXDR,C,,C,WCHR,C,,C,WCHT,C,,C,HINX,P,1.0235,B,STNP*4E
$HCHDT,8.9,T*28
$YXXDR,A,-0.6,D,PTCH,A,1.1,D,ROLL*76
$WIMWV,181.6,R,1.6,N,A*2A
$GPGGA,110316.40,4336.8586,N,01330.0201,E,1,7,1.5,0.0,M,45.4,M,,*59
$HCHDT,8.9,T*28
$GPVTG,322.3,T,319.4,M,0.0,N,0.0,K,A*2C
$WIMWV,181.6,R,2.1,N,A*2E
$WIMDA,30.2269,I,1.0236,B,17.0,C,,,44.6,,4.8,C,190.5,T,187.6,M,2.1,N,1.1,M*59
$GPZDA,110316.80,13,02,2015,00,00*6C
$YXXDR,C,,C,WCHR,C,,C,WCHT,C,,C,HINX,P,1.0236,B,STNP*4D
$HCHDT,8.9,T*28
$YXXDR,A,-0.6,D,PTCH,A,1.1,D,ROLL*76
$WIMWV,181.6,R,2.5,N,A*2A
$GPGGA,110317.40,4336.8586,N,01330.0201,E,1,7,1.5,0.0,M,45.4,M,,*58
$HCHDT,8.9,T*28
$GPVTG,322.3,T,319.4,M,0.0,N,0.0,K,A*2C
$WIMWV,188.3,R,2.3,N,A*20
$WIMDA,30.2239,I,1.0235,B,17.0,C,,,44.6,,4.8,C,197.2,T,194.3,M,2.3,N,1.2,M*59
$GPZDA,110317.80,13,02,2015,00,00*6D
$YXXDR,C,,C,WCHR,C,,C,WCHT,C,,C,HINX,P,1.0235,B,STNP*4E
$HCHDT,8.9,T*28
$YXXDR,A,-0.6,D,PTCH,A,1.1,D,ROLL*76
$WIMWV,192.7,R,1.3,N,A*2C
$GPGGA,110318.40,4336.8586,N,01330.0201,E,1,7,1.5,0.0,M,45.4,M,,*57
$HCHDT,8.9,T*28
$GPVTG,322.3,T,319.4,M,0.0,N,0.0,K,A*2C
$WIMWV,196.1,R,1.4,N,A*29
$WIMDA,30.2210,I,1.0234,B,16.9,C,,,44.6,,4.7,C,205.1,T,202.2,M,1.4,N,0.7,M*52
$GPZDA,110318.80,13,02,2015,00,00*62
$YXXDR,C,,C,WCHR,C,,C,WCHT,C,,C,HINX,P,1.0234,B,STNP*4F
$HCHDT,8.8,T*29
$YXXDR,A,-0.6,D,PTCH,A,1.1,D,ROLL*76
$WIMWV,181.6,R,1.5,N,A*29
$GPGGA,110319.40,4336.8586,N,01330.0201,E,1,7,1.5,0.0,M,45.4,M,,*56
$HCHDT,8.9,T*28
$GPVTG,322.3,T,319.4,M,0.0,N,0.0,K,A*2C
$WIMWV,181.6,R,1.4,N,A*28
$WIMDA,30.2239,I,1.0235,B,16.9,C,,,44.7,,4.7,C,190.6,T,187.7,M,1.4,N,0.7,M*5A
$GPZDA,110319.80,13,02,2015,00,00*63
$YXXDR,C,,C,WCHR,C,,C,WCHT,C,,C,HINX,P,1.0235,B,STNP*4E
$HCHDT,8.9,T*28
$YXXDR,A,-0.6,D,PTCH,A,1.1,D,ROLL*76
$WIMWV,192.8,R,1.1,N,A*21
$GPGGA,110320.40,4336.8586,N,01330.0201,E,1,7,1.5,0.0,M,45.4,M,,*5C
$HCHDT,8.9,T*28
$GPVTG,322.3,T,319.4,M,0.0,N,0.0,K,A*2C
$WIMWV,181.6,R,1.0,N,A*2C
$WIMDA,30.2239,I,1.0235,B,16.9,C,,,44.7,,4.7,C,190.6,T,187.7,M,1.0,N,0.5,M*5C
$GPZDA,110320.80,13,02,2015,00,00*69
$YXXDR,C,,C,WCHR,C,,C,WCHT,C,,C,HINX,P,1.0235,B,STNP*4E
$HCHDT,8.9,T*28
$YXXDR,A,-0.6,D,PTCH,A,1.0,D,ROLL*77
$WIMWV,167.0,R,0.7,N,A*24
$GPGGA,110321.40,4336.8586,N,01330.0201,E,1,7,1.5,0.0,M,45.4,M,,*5D
$HCHDT,8.9,T*28
$GPVTG,322.3,T,319.4,M,0.0,N,0.0,K,A*2C
$WIMWV,135.7,R,0.6,N,A*25
$WIMDA,30.2210,I,1.0234,B,16.9,C,,,44.7,,4.7,C,144.5,T,141.6,M,0.6,N,0.3,M*56
$GPZDA,110321.80,13,02,2015,00,00*68
$YXXDR,C,,C,WCHR,C,,C,WCHT,C,,C,HINX,P,1.0234,B,STNP*4F
$HCHDT,8.9,T*28
$YXXDR,A,-0.6,D,PTCH,A,1.0,D,ROLL*77
$WIMWV,122.1,R,0.6,N,A*25
$GPGGA,110322.40,4336.8586,N,01330.0201,E,1,7,1.5,0.0,M,45.4,M,,*5E
$HCHDT,8.9,T*28
$GPVTG,322.3,T,319.4,M,0.0,N,0.0,K,A*2C
$WIMWV,123.2,R,0.7,N,A*26
$WIMDA,30.2269,I,1.0236,B,16.9,C,,,44.7,,4.7,C,132.1,T,129.2,M,0.7,N,0.4,M*53
$GPZDA,110322.80,13,02,2015,00,00*6B
$YXXDR,C,,C,WCHR,C,,C,WCHT,C,,C,HINX,P,1.0236,B,STNP*4D
$HCHDT,8.9,T*28
$YXXDR,A,-0.6,D,PTCH,A,1.0,D,ROLL*77
$WIMWV,144.9,R,0.8,N,A*23
$GPGGA,110323.40,4336.8586,N,01330.0201,E,1,7,1.5,0.0,M,45.4,M,,*5F
$HCHDT,8.9,T*28
$GPVTG,322.3,T,319.4,M,0.0,N,0.0,K,A*2C
$WIMWV,132.4,R,0.7,N,A*20
$WIMDA,30.2239,I,1.0235,B,16.9,C,,,44.7,,4.7,C,141.2,T,138.3,M,0.6,N,0.3,M*55
$GPZDA,110323.80,13,02,2015,00,00*6A
$YXXDR,C,,C,WCHR,C,,C,WCHT,C,,C,HINX,P,1.0235,B,STNP*4E
$HCHDT,8.9,T*28
$YXXDR,A,-0.6,D,PTCH,A,1.0,D,ROLL*77
$WIMWV,120.1,R,0.8,N,A*29
$GPGGA,110324.40,4336.8586,N,01330.0201,E,1,7,1.5,0.0,M,45.4,M,,*58
$HCHDT,8.9,T*28
$GPVTG,322.3,T,319.4,M,0.0,N,0.0,K,A*2C
$WIMWV,131.7,R,1.1,N,A*27
$WIMDA,30.2239,I,1.0235,B,16.9,C,,,44.7,,4.7,C,140.6,T,137.7,M,1.1,N,0.6,M*58
$GPZDA,110324.80,13,02,2015,00,00*6D
$YXXDR,C,,C,WCHR,C,,C,WCHT,C,,C,HINX,P,1.0235,B,STNP*4E
$HCHDT,8.9,T*28
$YXXDR,A,-0.6,D,PTCH,A,1.1,D,ROLL*76
$WIMWV,132.1,R,1.6,N,A*25
$GPGGA,110325.40,4336.8586,N,01330.0201,E,1,7,1.5,0.0,M,45.4,M,,*59
$HCHDT,8.9,T*28
$GPVTG,322.3,T,319.4,M,0.0,N,0.0,K,A*2C
$WIMWV,139.6,R,1.8,N,A*27
$WIMDA,30.2239,I,1.0235,B,16.9,C,,,44.8,,4.8,C,148.5,T,145.6,M,1.8,N,0.9,M*51
$GPZDA,110325.80,13,02,2015,00,00*6C
$YXXDR,C,,C,WCHR,C,,C,WCHT,C,,C,HINX,P,1.0235,B,STNP*4E
$HCHDT,8.8,T*29
$YXXDR,A,-0.6,D,PTCH,A,1.1,D,ROLL*76
$WIMWV,115.0,R,1.5,N,A*22
$GPGGA,110326.40,4336.8586,N,01330.0201,E,1,7,1.5,0.0,M,45.4,M,,*5A
$HCHDT,8.9,T*28
$GPVTG,322.3,T,319.4,M,0.0,N,0.0,K,A*2C
$WIMWV,112.9,R,1.4,N,A*2D
$WIMDA,30.2210,I,1.0234,B,16.9,C,,,44.8,,4.8,C,121.8,T,118.9,M,1.4,N,0.7,M*5C
$GPZDA,110326.80,13,02,2015,00,00*6F
$YXXDR,C,,C,WCHR,C,,C,WCHT,C,,C,HINX,P,1.0234,B,STNP*4F
$HCHDT,8.9,T*28
$YXXDR,A,-0.6,D,PTCH,A,1.0,D,ROLL*77
$WIMWV,135.1,R,0.9,N,A*2C
$GPGGA,110327.40,4336.8586,N,01330.0201,E,1,7,1.5,0.0,M,45.4,M,,*5B
$HCHDT,8.9,T*28
$GPVTG,322.3,T,319.4,M,0.0,N,0.0,K,A*2C
$WIMWV,144.9,R,0.9,N,A*22
$WIMDA,30.2210,I,1.0234,B,16.9,C,,,44.9,,4.8,C,153.7,T,150.8,M,0.9,N,0.5,M*54
$GPZDA,110327.80,13,02,2015,00,00*6E
$YXXDR,C,,C,WCHR,C,,C,WCHT,C,,C,HINX,P,1.0234,B,STNP*4F
$HCHDT,8.9,T*28
$YXXDR,A,-0.6,D,PTCH,A,1.1,D,ROLL*76
$WIMWV,113.6,R,0.7,N,A*21
$GPGGA,110328.40,4336.8586,N,01330.0201,E,1,7,1.5,0.0,M,45.4,M,,*54
$HCHDT,8.8,T*29
$GPVTG,322.3,T,319.4,M,0.0,N,0.0,K,A*2C
$WIMWV,102.6,R,1.2,N,A*25
$WIMDA,30.2239,I,1.0235,B,16.9,C,,,44.9,,4.8,C,111.4,T,108.5,M,1.2,N,0.6,M*52
$GPZDA,110328.80,13,02,2015,00,00*61
$YXXDR,C,,C,WCHR,C,,C,WCHT,C,,C,HINX,P,1.0235,B,STNP*4E
$HCHDT,8.8,T*29
$YXXDR,A,-0.6,D,PTCH,A,1.1,D,ROLL*76
$WIMWV,112.7,R,1.2,N,A*25
$GPGGA,110329.40,4336.8586,N,01330.0201,E,1,7,1.5,0.0,M,45.4,M,,*55
$HCHDT,8.9,T*28
$GPVTG,322.3,T,319.4,M,0.0,N,0.0,K,A*2C
$WIMWV,124.7,R,0.8,N,A*2B
$WIMDA,30.2269,I,1.0236,B,16.9,C,,,44.9,,4.8,C,133.5,T,130.6,M,0.8,N,0.4,M*54
$GPZDA,110329.80,13,02,2015,00,00*60
$YXXDR,C,,C,WCHR,C,,C,WCHT,C,,C,HINX,P,1.0236,B,STNP*4D
$HCHDT,8.9,T*28
$YXXDR,A,-0.6,D,PTCH,A,1.0,D,ROLL*77
$WIMWV,132.4,R,1.7,N,A*21
$GPGGA,110330.40,4336.8586,N,01330.0201,E,1,7,1.5,0.0,M,45.4,M,,*5D
$HCHDT,8.9,T*28
$GPVTG,322.3,T,319.4,M,0.0,N,0.0,K,A*2C
$WIMWV,119.6,R,2.0,N,A*2E
$WIMDA,30.2210,I,1.0234,B,16.9,C,,,44.9,,4.8,C,128.4,T,125.5,M,2.0,N,1.0,M*5B
$GPZDA,110330.80,13,02,2015,00,00*68
$YXXDR,C,,C,WCHR,C,,C,WCHT,C,,C,HINX,P,1.0234,B,STNP*4F
$HCHDT,8.9,T*28
$YXXDR,A,-0.6,D,PTCH,A,1.0,D,ROLL*77
$WIMWV,119.5,R,1.7,N,A*29
$GPGGA,110331.40,4336.8586,N,01330.0201,E,1,7,1.5,0.0,M,45.4,M,,*5C
$HCHDT,8.9,T*28
$GPVTG,322.3,T,319.4,M,0.0,N,0.0,K,A*2C
$WIMWV,116.8,R,1.5,N,A*29
$WIMDA,30.2210,I,1.0234,B,16.9,C,,,44.9,,4.8,C,125.7,T,122.8,M,1.5,N,0.8,M*50
$GPZDA,110331.80,13,02,2015,00,00*69
$YXXDR,C,,C,WCHR,C,,C,WCHT,C,,C,HINX,P,1.0234,B,STNP*4F
$HCHDT,8.9,T*28
$YXXDR,A,-0.6,D,PTCH,A,1.0,D,ROLL*77
$WIMWV,119.7,R,1.3,N,A*2F
$GPGGA,110332.40,4336.8586,N,01330.0201,E,1,7,1.5,0.0,M,45.4,M,,*5F
$HCHDT,8.8,T*29
$GPVTG,322.3,T,319.4,M,0.0,N,0.0,K,A*2C
$WIMWV,113.1,R,1.1,N,A*21
$WIMDA,30.2239,I,1.0235,B,16.9,C,,,45.0,,4.8,C,121.9,T,119.0,M,1.1,N,0.6,M*52
$GPZDA,110332.80,13,02,2015,00,00*6A
$YXXDR,C,,C,WCHR,C,,C,WCHT,C,,C,HINX,P,1.0235,B,STNP*4E
$HCHDT,8.8,T*29
$YXXDR,A,-0.6,D,PTCH,A,1.1,D,ROLL*76
$WIMWV,108.8,R,1.0,N,A*23
$GPGGA,110333.40,4336.8586,N,01330.0201,E,1,7,1.5,0.0,M,45.4,M,,*5E
$HCHDT,8.8,T*29
$GPVTG,322.3,T,319.4,M,0.0,N,0.0,K,A*2C
$WIMWV,115.4,R,0.9,N,A*2B
$WIMDA,30.2239,I,1.0235,B,16.9,C,,,45.0,,4.8,C,124.2,T,121.3,M,0.9,N,0.5,M*5E
$GPZDA,110333.80,13,02,2015,00,00*6B
$YXXDR,C,,C,WCHR,C,,C,WCHT,C,,C,HINX,P,1.0235,B,STNP*4E
$HCHDT,8.8,T*29
$YXXDR,A,-0.6,D,PTCH,A,1.1,D,ROLL*76
$WIMWV,118.9,R,0.9,N,A*2B
$GPGGA,110334.40,4336.8586,N,01330.0201,E,1,7,1.5,0.0,M,45.4,M,,*59
$HCHDT,8.9,T*28
$GPVTG,322.3,T,319.4,M,0.0,N,0.0,K,A*2C
$WIMWV,119.9,R,0.9,N,A*2A
$WIMDA,30.2239,I,1.0235,B,16.9,C,,,45.0,,4.8,C,128.7,T,125.8,M,0.9,N,0.5,M*58
$GPZDA,110334.80,13,02,2015,00,00*6C
$YXXDR,C,,C,WCHR,C,,C,WCHT,C,,C,HINX,P,1.0235,B,STNP*4E
$HCHDT,8.9,T*28
$YXXDR,A,-0.6,D,PTCH,A,1.1,D,ROLL*76
$WIMWV,120.1,R,0.8,N,A*29
$GPGGA,110335.40,4336.8586,N,01330.0201,E,1,7,1.5,0.0,M,45.4,M,,*58
$HCHDT,8.8,T*29
$GPVTG,322.3,T,319.4,M,0.0,N,0.0,K,A*2C
$WIMWV,121.2,R,1.0,N,A*22
$WIMDA,30.2210,I,1.0234,B,16.9,C,,,45.1,,4.9,C,130.0,T,127.1,M,1.0,N,0.5,M*5F
$GPZDA,110335.80,13,02,2015,00,00*6D
$YXXDR,C,,C,WCHR,C,,C,WCHT,C,,C,HINX,P,1.0234,B,STNP*4F
$HCHDT,8.8,T*29
$YXXDR,A,-0.6,D,PTCH,A,1.1,D,ROLL*76
$WIMWV,107.4,R,1.1,N,A*21
$GPGGA,110336.40,4336.8586,N,01330.0201,E,1,7,1.5,0.0,M,45.4,M,,*5B
$HCHDT,8.8,T*29
$GPVTG,322.3,T,319.4,M,0.0,N,0.0,K,A*2C
$WIMWV,100.9,R,1.5,N,A*2F
$WIMDA,30.2269,I,1.0236,B,16.9,C,,,45.1,,4.9,C,109.7,T,106.8,M,1.5,N,0.8,M*5C
$GPZDA,110336.80,13,02,2015,00,00*6E
$YXXDR,C,,C,WCHR,C,,C,WCHT,C,,C,HINX,P,1.0236,B,STNP*4D
$HCHDT,8.9,T*28
$YXXDR,A,-0.6,D,PTCH,A,1.1,D,ROLL*76
$WIMWV,100.9,R,1.5,N,A*2F
$GPGGA,110337.40,4336.8586,N,01330.0201,E,1,7,1.5,0.0,M,45.4,M,,*5A
$HCHDT,8.9,T*28
$GPVTG,322.3,T,319.4,M,0.0,N,0.0,K,A*2C
$WIMWV,100.0,R,1.6,N,A*25
$WIMDA,30.2239,I,1.0235,B,16.9,C,,,45.1,,4.9,C,108.9,T,106.0,M,1.5,N,0.8,M*5D
$GPZDA,110337.80,13,02,2015,00,00*6F
$YXXDR,C,,C,WCHR,C,,C,WCHT,C,,C,HINX,P,1.0235,B,STNP*4E
$HCHDT,9.0,T*20
$YXXDR,A,-0.6,D,PTCH,A,1.1,D,ROLL*76
$WIMWV,97.2,R,1.6,N,A*18
$GPGGA,110338.40,4336.8586,N,01330.0201,E,1,7,1.5,0.0,M,45.4,M,,*55
$HCHDT,9.0,T*20
$GPVTG,322.3,T,319.4,M,0.0,N,0.0,K,A*2C
$WIMWV,99.8,R,1.5,N,A*1F
$WIMDA,30.2239,I,1.0235,B,16.8,C,,,45.1,,4.8,C,108.8,T,105.9,M,1.4,N,0.7,M*58
$GPZDA,110338.80,13,02,2015,00,00*60
$YXXDR,C,,C,WCHR,C,,C,WCHT,C,,C,HINX,P,1.0235,B,STNP*4E
$HCHDT,9.0,T*20
$YXXDR,A,-0.6,D,PTCH,A,1.1,D,ROLL*76
$WIMWV,98.4,R,1.5,N,A*12
$GPGGA,110339.40,4336.8586,N,01330.0201,E,1,7,1.5,0.0,M,45.4,M,,*54
$HCHDT,9.1,T*21
$GPVTG,322.3,T,319.4,M,0.0,N,0.0,K,A*2C
$WIMWV,92.3,R,1.5,N,A*1F
$WIMDA,30.2239,I,1.0235,B,16.8,C,,,45.2,,4.8,C,101.4,T,98.5,M,1.4,N,0.7,M*67
$GPZDA,110339.80,13,02,2015,00,00*61
$YXXDR,C,,C,WCHR,C,,C,WCHT,C,,C,HINX,P,1.0235,B,STNP*4E
$HCHDT,9.1,T*21
$YXXDR,A,-0.6,D,PTCH,A,1.1,D,ROLL*76
$WIMWV,99.1,R,1.4,N,A*17
$GPGGA,110340.40,4336.8586,N,01330.0201,E,1,7,1.5,0.0,M,45.4,M,,*5A
$HCHDT,9.1,T*21
$GPVTG,322.3,T,319.4,M,0.0,N,0.0,K,A*2C
$WIMWV,112.1,R,1.1,N,A*20
$WIMDA,30.2269,I,1.0236,B,16.8,C,,,45.2,,4.8,C,121.1,T,118.2,M,1.1,N,0.6,M*5C
$GPZDA,110340.80,13,02,2015,00,00*6F
$YXXDR,C,,C,WCHR,C,,C,WCHT,C,,C,HINX,P,1.0236,B,STNP*4D
$HCHDT,9.1,T*21
$YXXDR,A,-0.6,D,PTCH,A,1.1,D,ROLL*76
$WIMWV,120.9,R,1.1,N,A*29
$GPGGA,110341.40,4336.8586,N,01330.0201,E,1,7,1.5,0.0,M,45.4,M,,*5B
$HCHDT,9.1,T*21
$GPVTG,322.3,T,319.4,M,0.0,N,0.0,K,A*2C
$WIMWV,124.7,R,1.0,N,A*22
$WIMDA,30.2239,I,1.0235,B,16.8,C,,,45.2,,4.8,C,133.7,T,130.8,M,1.0,N,0.5,M*5D
$GPZDA,110341.80,13,02,2015,00,00*6E
$YXXDR,C,,C,WCHR,C,,C,WCHT,C,,C,HINX,P,1.0235,B,STNP*4E
$HCHDT,9.1,T*21
$YXXDR,A,-0.6,D,PTCH,A,1.1,D,ROLL*76
$WIMWV,123.4,R,1.0,N,A*26
$GPGGA,110342.40,4336.8586,N,01330.0201,E,1,7,1.5,0.0,M,45.4,M,,*58
$HCHDT,9.0,T*20
$GPVTG,322.3,T,319.4,M,0.0,N,0.0,K,A*2C
$WIMWV,123.9,R,1.0,N,A*2B
$WIMDA,30.2239,I,1.0235,B,16.8,C,,,45.2,,4.8,C,132.9,T,130.0,M,1.0,N,0.5,M*5A
$GPZDA,110342.80,13,02,2015,00,00*6D
$YXXDR,C,,C,WCHR,C,,C,WCHT,C,,C,HINX,P,1.0235,B,STNP*4E
$HCHDT,9.0,T*20
$YXXDR,A,-0.7,D,PTCH,A,1.1,D,ROLL*77
$WIMWV,125.7,R,1.1,N,A*22
$GPGGA,110343.40,4336.8586,N,01330.0201,E,1,7,1.5,0.0,M,45.4,M,,*59
$HCHDT,8.9,T*28
$GPVTG,322.3,T,319.4,M,0.0,N,0.0,K,A*2C
$WIMWV,141.8,R,0.7,N,A*28
$WIMDA,30.2269,I,1.0236,B,16.8,C,,,45.3,,4.8,C,150.8,T,147.9,M,0.7,N,0.4,M*56
$GPZDA,110343.80,13,02,2015,00,00*6C
$YXXDR,C,,C,WCHR,C,,C,WCHT,C,,C,HINX,P,1.0236,B,STNP*4D
$HCHDT,8.9,T*28
$YXXDR,A,-0.6,D,PTCH,A,1.1,D,ROLL*76
$WIMWV,139.4,R,0.5,N,A*29
$GPGGA,110344.40,4336.8586,N,01330.0201,E,1,7,1.5,0.0,M,45.4,M,,*5E
$HCHDT,8.9,T*28
$GPVTG,322.3,T,319.4,M,0.0,N,0.0,K,A*2C
$WIMWV,147.8,R,1.9,N,A*21
$WIMDA,30.2269,I,1.0236,B,16.8,C,,,45.3,,4.8,C,156.6,T,153.7,M,1.9,N,1.0,M*5F
$GPZDA,110344.80,13,02,2015,00,00*6B
$YXXDR,C,,C,WCHR,C,,C,WCHT,C,,C,HINX,P,1.0236,B,STNP*4D
$HCHDT,8.9,T*28
$YXXDR,A,-0.7,D,PTCH,A,1.1,D,ROLL*77
$WIMWV,142.0,R,2.0,N,A*26
$GPGGA,110345.40,4336.8586,N,01330.0201,E,1,7,1.5,0.0,M,45.4,M,,*5F
$HCHDT,8.9,T*28
$GPVTG,322.3,T,319.4,M,0.0,N,0.0,K,A*2C
$WIMWV,143.6,R,1.9,N,A*2B
$WIMDA,30.2269,I,1.0236,B,16.7,C,,,45.3,,4.7,C,152.5,T,149.6,M,1.9,N,1.0,M*52
$GPZDA,110345.80,13,02,2015,00,00*6A
$YXXDR,C,,C,WCHR,C,,C,WCHT,C,,C,HINX,P,1.0236,B,STNP*4D
$HCHDT,8.9,T*28
$YXXDR,A,-0.6,D,PTCH,A,1.1,D,ROLL*76
$WIMWV,132.7,R,1.8,N,A*2D
$GPGGA,110346.40,4336.8586,N,01330.0201,E,1,7,1.5,0.0,M,45.4,M,,*5C
$HCHDT,8.9,T*28
$GPVTG,322.3,T,319.4,M,0.0,N,0.0,K,A*2C
$WIMWV,127.5,R,2.0,N,A*20
$WIMDA,30.2239,I,1.0235,B,16.7,C,,,45.4,,4.8,C,136.4,T,133.5,M,2.0,N,1.0,M*5B
$GPZDA,110346.80,13,02,2015,00,00*69
$YXXDR,C,,C,WCHR,C,,C,WCHT,C,,C,HINX,P,1.0235,B,STNP*4E
$HCHDT,8.9,T*28
$YXXDR,A,-0.6,D,PTCH,A,1.0,D,ROLL*77
$WIMWV,134.2,R,2.1,N,A*24
$GPGGA,110347.40,4336.8586,N,01330.0201,E,1,7,1.5,0.0,M,45.4,M,,*5D
$HCHDT,8.9,T*28
$GPVTG,322.3,T,319.4,M,0.0,N,0.0,K,A*2C
$WIMWV,143.3,R,1.8,N,A*2F
$WIMDA,30.2269,I,1.0236,B,16.7,C,,,45.4,,4.8,C,152.2,T,149.3,M,1.8,N,0.9,M*51
$GPZDA,110347.80,13,02,2015,00,00*68
$YXXDR,C,,C,WCHR,C,,C,WCHT,C,,C,HINX,P,1.0236,B,STNP*4D
$HCHDT,8.9,T*28
$YXXDR,A,-0.6,D,PTCH,A,1.1,D,ROLL*76
$WIMWV,143.4,R,1.7,N,A*27
$GPGGA,110348.40,4336.8586,N,01330.0201,E,1,7,1.5,0.0,M,45.4,M,,*52
$HCHDT,8.9,T*28
$GPVTG,322.3,T,319.4,M,0.0,N,0.0,K,A*2C
$WIMWV,146.9,R,1.5,N,A*2D
$WIMDA,30.2269,I,1.0236,B,16.7,C,,,45.4,,4.8,C,155.7,T,152.8,M,1.5,N,0.8,M*5E
$GPZDA,110348.80,13,02,2015,00,00*67
$YXXDR,C,,C,WCHR,C,,C,WCHT,C,,C,HINX,P,1.0236,B,STNP*4D
$HCHDT,8.9,T*28
$YXXDR,A,-0.6,D,PTCH,A,1.1,D,ROLL*76
$WIMWV,150.3,R,1.3,N,A*26
$GPGGA,110349.40,4336.8586,N,01330.0201,E,1,7,1.5,0.0,M,45.4,M,,*53
$HCHDT,8.9,T*28
$GPVTG,322.3,T,319.4,M,0.0,N,0.0,K,A*2C
$WIMWV,160.1,R,0.8,N,A*2D
$WIMDA,30.2269,I,1.0236,B,16.7,C,,,45.4,,4.8,C,168.9,T,166.0,M,0.7,N,0.4,M*5E
$GPZDA,110349.80,13,02,2015,00,00*66
$YXXDR,C,,C,WCHR,C,,C,WCHT,C,,C,HINX,P,1.0236,B,STNP*4D
$HCHDT,8.9,T*28
$YXXDR,A,-0.6,D,PTCH,A,1.1,D,ROLL*76
$WIMWV,149.8,R,0.8,N,A*2F
$GPGGA,110350.40,4336.8586,N,01330.0201,E,1,7,1.5,0.0,M,45.4,M,,*5B
$HCHDT,8.9,T*28
$GPVTG,322.3,T,319.4,M,0.0,N,0.0,K,A*2C
$WIMWV,123.7,R,0.9,N,A*2D
$WIMDA,30.2269,I,1.0236,B,16.7,C,,,45.4,,4.8,C,132.6,T,129.7,M,0.9,N,0.5,M*5D
$GPZDA,110350.80,13,02,2015,00,00*6E
$YXXDR,C,,C,WCHR,C,,C,WCHT,C,,C,HINX,P,1.0236,B,STNP*4D
$HCHDT,8.9,T*28
$YXXDR,A,-0.6,D,PTCH,A,1.1,D,ROLL*76
$WIMWV,123.6,R,1.0,N,A*24
$GPGGA,110351.40,4336.8586,N,01330.0201,E,1,7,1.5,0.0,M,45.4,M,,*5A
$HCHDT,8.9,T*28
$GPVTG,322.3,T,319.4,M,0.0,N,0.0,K,A*2C
$WIMWV,128.7,R,1.1,N,A*2F
$WIMDA,30.2239,I,1.0235,B,16.7,C,,,45.4,,4.8,C,137.5,T,134.6,M,1.1,N,0.6,M*5A
$GPZDA,110351.80,13,02,2015,00,00*6F
$YXXDR,C,,C,WCHR,C,,C,WCHT,C,,C,HINX,P,1.0235,B,STNP*4E
$HCHDT,8.9,T*28
$YXXDR,A,-0.7,D,PTCH,A,1.1,D,ROLL*77
$WIMWV,132.4,R,1.2,N,A*24
$GPGGA,110352.40,4336.8586,N,01330.0201,E,1,7,1.5,0.0,M,45.4,M,,*59
$HCHDT,9.0,T*20
$GPVTG,322.3,T,319.4,M,0.0,N,0.0,K,A*2C
$WIMWV,138.5,R,1.1,N,A*2C
$WIMDA,30.2239,I,1.0235,B,16.7,C,,,45.4,,4.8,C,147.5,T,144.6,M,1.0,N,0.5,M*58
$GPZDA,110352.80,13,02,2015,00,00*6C
$YXXDR,C,,C,WCHR,C,,C,WCHT,C,,C,HINX,P,1.0235,B,STNP*4E
$HCHDT,8.9,T*28
$YXXDR,A,-0.6,D,PTCH,A,1.1,D,ROLL*76
$WIMWV,145.6,R,1.2,N,A*26
$GPGGA,110353.40,4336.8586,N,01330.0201,E,1,7,1.5,0.0,M,45.4,M,,*58
$HCHDT,8.9,T*28
$GPVTG,322.3,T,319.4,M,0.0,N,0.0,K,A*2C
$WIMWV,165.1,R,1.0,N,A*21
$WIMDA,30.2239,I,1.0235,B,16.7,C,,,45.5,,4.8,C,174.0,T,171.1,M,1.0,N,0.5,M*5D
$GPZDA,110353.80,13,02,2015,00,00*6D
$YXXDR,C,,C,WCHR,C,,C,WCHT,C,,C,HINX,P,1.0235,B,STNP*4E
$HCHDT,8.9,T*28
$YXXDR,A,-0.6,D,PTCH,A,1.1,D,ROLL*76
$WIMWV,196.2,R,1.4,N,A*2A
$GPGGA,110354.40,4336.8586,N,01330.0201,E,1,7,1.5,0.0,M,45.4,M,,*5F
$HCHDT,8.9,T*28
$GPVTG,322.3,T,319.4,M,0.0,N,0.0,K,A*2C
$WIMWV,199.8,R,1.8,N,A*23
$WIMDA,30.2269,I,1.0236,B,16.7,C,,,45.5,,4.8,C,208.8,T,205.9,M,1.8,N,0.9,M*57
$GPZDA,110354.80,13,02,2015,00,00*6A
$YXXDR,C,,C,WCHR,C,,C,WCHT,C,,C,HINX,P,1.0236,B,STNP*4D
$HCHDT,8.9,T*28
$YXXDR,A,-0.7,D,PTCH,A,1.1,D,ROLL*77
$WIMWV,197.5,R,1.9,N,A*21
$GPGGA,110355.40,4336.8586,N,01330.0201,E,1,7,1.5,0.0,M,45.4,M,,*5E
$HCHDT,8.9,T*28
$GPVTG,322.3,T,319.4,M,0.0,N,0.0,K,A*2C
$WIMWV,198.7,R,1.8,N,A*2D
$WIMDA,30.2269,I,1.0236,B,16.7,C,,,45.5,,4.8,C,207.7,T,204.8,M,1.8,N,0.9,M*57
$GPZDA,110355.80,13,02,2015,00,00*6B
$YXXDR,C,,C,WCHR,C,,C,WCHT,C,,C,HINX,P,1.0236,B,STNP*4D
$HCHDT,8.9,T*28
$YXXDR,A,-0.6,D,PTCH,A,1.0,D,ROLL*77
$WIMWV,202.6,R,1.9,N,A*2D
$GPGGA,110356.40,4336.8586,N,01330.0201,E,1,7,1.5,0.0,M,45.4,M,,*5D
$HCHDT,8.9,T*28
$GPVTG,322.3,T,319.4,M,0.0,N,0.0,K,A*2C
$WIMWV,196.4,R,1.4,N,A*2C
$WIMDA,30.2239,I,1.0235,B,16.7,C,,,45.5,,4.8,C,205.4,T,202.5,M,1.4,N,0.7,M*59
$GPZDA,110356.80,13,02,2015,00,00*68
$YXXDR,C,,C,WCHR,C,,C,WCHT,C,,C,HINX,P,1.0235,B,STNP*4E
$HCHDT,8.9,T*28
$YXXDR,A,-0.6,D,PTCH,A,1.0,D,ROLL*77
$WIMWV,198.0,R,1.3,N,A*21
$GPGGA,110357.40,4336.8586,N,01330.0201,E,1,7,1.5,0.0,M,45.4,M,,*5C
$HCHDT,8.9,T*28
$GPVTG,322.3,T,319.4,M,0.0,N,0.0,K,A*2C
$WIMWV,198.8,R,1.2,N,A*28
$WIMDA,30.2239,I,1.0235,B,16.7,C,,,45.5,,4.8,C,207.6,T,204.7,M,1.2,N,0.6,M*5A
$GPZDA,110357.80,13,02,2015,00,00*69
$YXXDR,C,,C,WCHR,C,,C,WCHT,C,,C,HINX,P,1.0235,B,STNP*4E
$HCHDT,8.8,T*29
$YXXDR,A,-0.6,D,PTCH,A,1.0,D,ROLL*77
$WIMWV,191.0,R,1.3,N,A*28
$GPGGA,110358.40,4336.8586,N,01330.0201,E,1,7,1.5,0.0,M,45.4,M,,*53
$HCHDT,8.9,T*28
$GPVTG,322.3,T,319.4,M,0.0,N,0.0,K,A*2C
$WIMWV,191.9,R,1.2,N,A*20
$WIMDA,30.2269,I,1.0236,B,16.7,C,,,45.6,,4.8,C,200.8,T,197.9,M,1.2,N,0.6,M*51
$GPZDA,110358.80,13,02,2015,00,00*66
$YXXDR,C,,C,WCHR,C,,C,WCHT,C,,C,HINX,P,1.0236,B,STNP*4D
$HCHDT,8.9,T*28
$YXXDR,A,-0.6,D,PTCH,A,1.0,D,ROLL*77
$WIMWV,190.3,R,1.3,N,A*2A
$GPGGA,110359.40,4336.8586,N,01330.0201,E,1,7,1.5,0.0,M,45.4,M,,*52
$HCHDT,8.9,T*28
$GPVTG,322.3,T,319.4,M,0.0,N,0.0,K,A*2C
$WIMWV,169.3,R,1.3,N,A*2C
$WIMDA,30.2269,I,1.0236,B,16.7,C,,,45.6,,4.8,C,178.2,T,175.3,M,1.3,N,0.7,M*51
$GPZDA,110359.80,13,02,2015,00,00*67
$YXXDR,C,,C,WCHR,C,,C,WCHT,C,,C,HINX,P,1.0236,B,STNP*4D
$HCHDT,8.9,T*28
$YXXDR,A,-0.6,D,PTCH,A,1.0,D,ROLL*77
$WIMWV,181.6,R,1.2,N,A*2E
$GPGGA,110400.40,4336.8586,N,01330.0201,E,1,7,1.5,0.0,M,45.4,M,,*59
$HCHDT,8.9,T*28
$GPVTG,322.3,T,319.4,M,0.0,N,0.0,K,A*2C
$WIMWV,190.4,R,1.2,N,A*2C
$WIMDA,30.2298,I,1.0237,B,16.7,C,,,45.6,,4.8,C,199.4,T,196.5,M,1.2,N,0.6,M*5C
$GPZDA,110400.80,13,02,2015,00,00*6C
$YXXDR,C,,C,WCHR,C,,C,WCHT,C,,C,HINX,P,1.0237,B,STNP*4C
$HCHDT,8.9,T*28
$YXXDR,A,-0.7,D,PTCH,A,1.1,D,ROLL*77
$WIMWV,181.6,R,1.1,N,A*2D
$GPGGA,110401.40,4336.8586,N,01330.0201,E,1,7,1.5,0.0,M,45.4,M,,*58
$HCHDT,8.9,T*28
$GPVTG,322.3,T,319.4,M,0.0,N,0.0,K,A*2C
$WIMWV,181.6,R,1.2,N,A*2E
$WIMDA,30.2239,I,1.0235,B,16.7,C,,,45.6,,4.8,C,190.5,T,187.6,M,1.2,N,0.6,M*5E
$GPZDA,110401.80,13,02,2015,00,00*6D
$YXXDR,C,,C,WCHR,C,,C,WCHT,C,,C,HINX,P,1.0235,B,STNP*4E
$HCHDT,8.9,T*28
$YXXDR,A,-0.6,D,PTCH,A,1.0,D,ROLL*77
$WIMWV,190.3,R,1.4,N,A*2D
$GPGGA,110402.40,4336.8586,N,01330.0201,E,1,7,1.5,0.0,M,45.4,M,,*5B
$HCHDT,8.9,T*28
$GPVTG,322.3,T,319.4,M,0.0,N,0.0,K,A*2C
$WIMWV,191.0,R,1.4,N,A*2F
$WIMDA,30.2239,I,1.0235,B,16.6,C,,,45.6,,4.8,C,199.9,T,197.0,M,1.4,N,0.7,M*5A
$GPZDA,110402.80,13,02,2015,00,00*6E
$YXXDR,C,,C,WCHR,C,,C,WCHT,C,,C,HINX,P,1.0235,B,STNP*4E
$HCHDT,8.9,T*28
$YXXDR,A,-0.6,D,PTCH,A,1.0,D,ROLL*77
$WIMWV,201.0,R,1.7,N,A*26
$GPGGA,110403.40,4336.8586,N,01330.0201,E,1,7,1.5,0.0,M,45.4,M,,*5A
$HCHDT,8.9,T*28
$GPVTG,322.3,T,319.4,M,0.0,N,0.0,K,A*2C
$WIMWV,197.4,R,1.4,N,A*2D
$WIMDA,30.2239,I,1.0235,B,16.6,C,,,45.6,,4.8,C,206.4,T,203.5,M,1.4,N,0.7,M*59
$GPZDA,110403.80,13,02,2015,00,00*6F
$YXXDR,C,,C,WCHR,C,,C,WCHT,C,,C,HINX,P,1.0235,B,STNP*4E
$HCHDT,8.9,T*28
$YXXDR,A,-0.6,D,PTCH,A,1.0,D,ROLL*77
$WIMWV,201.7,R,1.5,N,A*23
$GPGGA,110404.40,4336.8586,N,01330.0201,E,1,7,1.5,0.0,M,45.4,M,,*5D
$HCHDT,8.9,T*28
$GPVTG,322.3,T,319.4,M,0.0,N,0.0,K,A*2C
$WIMWV,202.3,R,1.6,N,A*27
$WIMDA,30.2239,I,1.0235,B,16.6,C,,,45.7,,4.8,C,211.2,T,208.3,M,1.6,N,0.8,M*58
$GPZDA,110404.80,13,02,2015,00,00*68
$YXXDR,C,,C,WCHR,C,,C,WCHT,C,,C,HINX,P,1.0235,B,STNP*4E
$HCHDT,8.9,T*28
$YXXDR,A,-0.6,D,PTCH,A,1.0,D,ROLL*77
$WIMWV,199.8,R,1.5,N,A*2E
$GPGGA,110405.40,4336.8586,N,01330.0201,E,1,7,1.5,0.0,M,45.4,M,,*5C
$HCHDT,8.9,T*28
$GPVTG,322.3,T,319.4,M,0.0,N,0.0,K,A*2C
$WIMWV,199.3,R,1.2,N,A*22
$WIMDA,30.2239,I,1.0235,B,16.6,C,,,45.7,,4.8,C,208.2,T,205.3,M,1.2,N,0.6,M*57
$GPZDA,110405.80,13,02,2015,00,00*69
$YXXDR,C,,C,WCHR,C,,C,WCHT,C,,C,HINX,P,1.0235,B,STNP*4E
$HCHDT,8.9,T*28
$YXXDR,A,-0.6,D,PTCH,A,1.1,D,ROLL*76
$WIMWV,195.2,R,1.2,N,A*2F
$GPGGA,110406.40,4336.8586,N,01330.0201,E,1,7,1.5,0.0,M,45.4,M,,*5F
$HCHDT,8.9,T*28
$GPVTG,322.3,T,319.4,M,0.0,N,0.0,K,A*2C
$WIMWV,196.2,R,1.1,N,A*2F
$WIMDA,30.2239,I,1.0235,B,16.6,C,,,45.7,,4.8,C,205.1,T,202.2,M,1.1,N,0.6,M*5C
$GPZDA,110406.80,13,02,2015,00,00*6A
$YXXDR,C,,C,WCHR,C,,C,WCHT,C,,C,HINX,P,1.0235,B,STNP*4E
$HCHDT,8.9,T*28
$YXXDR,A,-0.6,D,PTCH,A,1.1,D,ROLL*76
$WIMWV,198.3,R,1.2,N,A*23
$GPGGA,110407.40,4336.8586,N,01330.0201,E,1,7,1.5,0.0,M,45.4,M,,*5E
$HCHDT,8.9,T*28
$GPVTG,322.3,T,319.4,M,0.0,N,0.0,K,A*2C
$WIMWV,202.3,R,1.6,N,A*27
$WIMDA,30.2239,I,1.0235,B,16.6,C,,,45.7,,4.8,C,211.2,T,208.3,M,1.6,N,0.8,M*58
$GPZDA,110407.80,13,02,2015,00,00*6B
$YXXDR,C,,C,WCHR,C,,C,WCHT,C,,C,HINX,P,1.0235,B,STNP*4E
$HCHDT,8.9,T*28
$YXXDR,A,-0.6,D,PTCH,A,1.0,D,ROLL*77
$WIMWV,198.6,R,1.7,N,A*23
$GPGGA,110408.40,4336.8586,N,01330.0201,E,1,7,1.5,0.0,M,45.4,M,,*51
$HCHDT,8.9,T*28
$GPVTG,322.3,T,319.4,M,0.0,N,0.0,K,A*2C
$WIMWV,189.2,R,1.6,N,A*26
$WIMDA,30.2239,I,1.0235,B,16.6,C,,,45.7,,4.8,C,198.1,T,195.2,M,1.6,N,0.8,M*5F
$GPZDA,110408.80,13,02,2015,00,00*64
$YXXDR,C,,C,WCHR,C,,C,WCHT,C,,C,HINX,P,1.0235,B,STNP*4E
$HCHDT,8.9,T*28
$YXXDR,A,-0.6,D,PTCH,A,1.1,D,ROLL*76
$WIMWV,189.0,R,1.3,N,A*21
$GPGGA,110409.40,4336.8586,N,01330.0201,E,1,7,1.5,0.0,M,45.4,M,,*50
$HCHDT,8.9,T*28
$GPVTG,322.3,T,319.4,M,0.0,N,0.0,K,A*2C
$WIMWV,193.3,R,1.2,N,A*28
$WIMDA,30.2239,I,1.0235,B,16.6,C,,,45.8,,4.8,C,202.3,T,199.4,M,1.2,N,0.6,M*52
$GPZDA,110409.80,13,02,2015,00,00*65
$YXXDR,C,,C,WCHR,C,,C,WCHT,C,,C,HINX,P,1.0235,B,STNP*4E
$HCHDT,8.9,T*28
$YXXDR,A,-0.6,D,PTCH,A,1.1,D,ROLL*76
$WIMWV,194.8,R,1.4,N,A*22
$GPGGA,110410.40,4336.8586,N,01330.0201,E,1,7,1.5,0.0,M,45.4,M,,*58
$HCHDT,8.9,T*28
$GPVTG,322.3,T,319.4,M,0.0,N,0.0,K,A*2C
$WIMWV,198.2,R,1.5,N,A*25
$WIMDA,30.2239,I,1.0235,B,16.6,C,,,45.8,,4.8,C,207.2,T,204.3,M,1.5,N,0.8,M*5F
$GPZDA,110410.80,13,02,2015,00,00*6D
$YXXDR,C,,C,WCHR,C,,C,WCHT,C,,C,HINX,P,1.0235,B,STNP*4E
$HCHDT,8.9,T*28
$YXXDR,A,-0.6,D,PTCH,A,1.1,D,ROLL*76
$WIMWV,203.2,R,1.9,N,A*28
$GPGGA,110411.40,4336.8586,N,01330.0201,E,1,7,1.5,0.0,M,45.4,M,,*59
$HCHDT,8.9,T*28
$GPVTG,322.3,T,319.4,M,0.0,N,0.0,K,A*2C
$WIMWV,207.4,R,1.8,N,A*2B
$WIMDA,30.2269,I,1.0236,B,16.6,C,,,45.8,,4.8,C,216.4,T,213.5,M,1.8,N,0.9,M*53
$GPZDA,110411.80,13,02,2015,00,00*6C
$YXXDR,C,,C,WCHR,C,,C,WCHT,C,,C,HINX,P,1.0236,B,STNP*4D
$HCHDT,8.9,T*28
$YXXDR,A,-0.6,D,PTCH,A,1.0,D,ROLL*77
$WIMWV,203.8,R,1.8,N,A*23
$GPGGA,110412.40,4336.8586,N,01330.0201,E,1,7,1.5,0.0,M,45.4,M,,*5A
$HCHDT,8.9,T*28
$GPVTG,322.3,T,319.4,M,0.0,N,0.0,K,A*2C
$WIMWV,204.2,R,2.2,N,A*27
$WIMDA,30.2239,I,1.0235,B,16.6,C,,,45.8,,4.8,C,213.2,T,210.3,M,2.2,N,1.1,M*53
$GPZDA,110412.80,13,02,2015,00,00*6F
$YXXDR,C,,C,WCHR,C,,C,WCHT,C,,C,HINX,P,1.0235,B,STNP*4E
$HCHDT,8.9,T*28
$YXXDR,A,-0.7,D,PTCH,A,1.1,D,ROLL*77
$WIMWV,208.6,R,1.8,N,A*26
$GPGGA,110413.40,4336.8586,N,01330.0201,E,1,7,1.5,0.0,M,45.4,M,,*5B
$HCHDT,8.8,T*29
$GPVTG,322.3,T,319.4,M,0.0,N,0.0,K,A*2C
$WIMWV,202.2,R,1.8,N,A*28
$WIMDA,30.2239,I,1.0235,B,16.5,C,,,45.9,,4.8,C,211.1,T,208.2,M,1.8,N,0.9,M*58
$GPZDA,110413.80,13,02,2015,00,00*6E
$YXXDR,C,,C,WCHR,C,,C,WCHT,C,,C,HINX,P,1.0235,B,STNP*4E
$HCHDT,8.9,T*28
$YXXDR,A,-0.6,D,PTCH,A,1.1,D,ROLL*76
$WIMWV,204.3,R,1.9,N,A*2E
$GPGGA,110414.40,4336.8586,N,01330.0201,E,1,7,1.5,0.0,M,45.4,M,,*5C
$HCHDT,8.9,T*28
$GPVTG,322.3,T,319.4,M,0.0,N,0.0,K,A*2C
$WIMWV,204.1,R,1.8,N,A*2D
$WIMDA,30.2239,I,1.0235,B,16.5,C,,,45.9,,4.8,C,213.1,T,210.2,M,1.8,N,0.9,M*53
$GPZDA,110414.80,13,02,2015,00,00*69
$YXXDR,C,,C,WCHR,C,,C,WCHT,C,,C,HINX,P,1.0235,B,STNP*4E
$HCHDT,8.9,T*28
$YXXDR,A,-0.6,D,PTCH,A,1.1,D,ROLL*76
$WIMWV,202.9,R,1.8,N,A*23
$GPGGA,110415.40,4336.8586,N,01330.0201,E,1,7,1.5,0.0,M,45.4,M,,*5D
$HCHDT,8.9,T*28
$GPVTG,322.3,T,319.4,M,0.0,N,0.0,K,A*2C
$WIMWV,203.4,R,1.7,N,A*20
$WIMDA,30.2239,I,1.0235,B,16.5,C,,,45.9,,4.8,C,212.3,T,209.4,M,1.7,N,0.9,M*51
$GPZDA,110415.80,13,02,2015,00,00*68
$YXXDR,C,,C,WCHR,C,,C,WCHT,C,,C,HINX,P,1.0235,B,STNP*4E
$HCHDT,8.9,T*28
$YXXDR,A,-0.6,D,PTCH,A,1.1,D,ROLL*76
$WIMWV,207.5,R,1.6,N,A*24
$GPGGA,110416.40,4336.8586,N,01330.0201,E,1,7,1.5,0.0,M,45.4,M,,*5E
$HCHDT,8.9,T*28
$GPVTG,322.3,T,319.4,M,0.0,N,0.0,K,A*2C
$WIMWV,203.4,R,1.9,N,A*2E
$WIMDA,30.2239,I,1.0235,B,16.5,C,,,45.9,,4.8,C,212.4,T,209.5,M,1.9,N,1.0,M*51
$GPZDA,110416.80,13,02,2015,00,00*6B
$YXXDR,C,,C,WCHR,C,,C,WCHT,C,,C,HINX,P,1.0235,B,STNP*4E
$HCHDT,8.9,T*28
$YXXDR,A,-0.6,D,PTCH,A,1.1,D,ROLL*76
$WIMWV,202.6,R,1.5,N,A*21
$GPGGA,110417.40,4336.8586,N,01330.0201,E,1,7,1.5,0.0,M,45.4,M,,*5F
$HCHDT,8.9,T*28
$GPVTG,322.3,T,319.4,M,0.0,N,0.0,K,A*2C
$WIMWV,202.5,R,1.6,N,A*21
$WIMDA,30.2239,I,1.0235,B,16.5,C,,,45.9,,4.8,C,211.4,T,208.5,M,1.6,N,0.8,M*55
$GPZDA,110417.80,13,02,2015,00,00*6A
$YXXDR,C,,C,WCHR,C,,C,WCHT,C,,C,HINX,P,1.0235,B,STNP*4E
$HCHDT,8.9,T*28
$YXXDR,A,-0.6,D,PTCH,A,1.1,D,ROLL*76
$WIMWV,205.6,R,1.7,N,A*24
$GPGGA,110418.40,4336.8586,N,01330.0201,E,1,7,1.5,0.0,M,45.4,M,,*50
$HCHDT,8.9,T*28
$GPVTG,322.3,T,319.4,M,0.0,N,0.0,K,A*2C
$WIMWV,200.5,R,1.4,N,A*21
$WIMDA,30.2269,I,1.0236,B,16.5,C,,,45.9,,4.8,C,209.4,T,206.5,M,1.4,N,0.7,M*59
$GPZDA,110418.80,13,02,2015,00,00*65
$YXXDR,C,,C,WCHR,C,,C,WCHT,C,,C,HINX,P,1.0236,B,STNP*4D
$HCHDT,8.9,T*28
$YXXDR,A,-0.7,D,PTCH,A,1.1,D,ROLL*77
$WIMWV,201.4,R,1.6,N,A*23
$GPGGA,110419.40,4336.8586,N,01330.0201,E,1,7,1.5,0.0,M,45.4,M,,*51
$HCHDT,8.9,T*28
$GPVTG,322.3,T,319.4,M,0.0,N,0.0,K,A*2C
$WIMWV,196.8,R,1.4,N,A*20
$WIMDA,30.2269,I,1.0236,B,16.5,C,,,46.0,,4.8,C,205.9,T,203.0,M,1.4,N,0.7,M*52
$GPZDA,110419.80,13,02,2015,00,00*64
$YXXDR,C,,C,WCHR,C,,C,WCHT,C,,C,HINX,P,1.0236,B,STNP*4D
$HCHDT,9.0,T*20
$YXXDR,A,-0.6,D,PTCH,A,1.1,D,ROLL*76
$WIMWV,196.8,R,1.3,N,A*27
$GPGGA,110420.40,4336.8586,N,01330.0201,E,1,7,1.5,0.0,M,45.4,M,,*5B
$HCHDT,8.9,T*28
$GPVTG,322.3,T,319.4,M,0.0,N,0.0,K,A*2C
$WIMWV,194.8,R,1.3,N,A*25
$WIMDA,30.2269,I,1.0236,B,16.5,C,,,46.0,,4.8,C,203.8,T,200.9,M,1.3,N,0.7,M*58
$GPZDA,110420.80,13,02,2015,00,00*6E
$YXXDR,C,,C,WCHR,C,,C,WCHT,C,,C,HINX,P,1.0236,B,STNP*4D
$HCHDT,9.0,T*20
$YXXDR,A,-0.6,D,PTCH,A,1.1,D,ROLL*76
$WIMWV,195.6,R,1.4,N,A*2D
$GPGGA,110421.40,4336.8586,N,01330.0201,E,1,7,1.5,0.0,M,45.4,M,,*5A
$HCHDT,8.9,T*28
$GPVTG,322.3,T,319.4,M,0.0,N,0.0,K,A*2C
$WIMWV,196.3,R,1.4,N,A*2B
$WIMDA,30.2239,I,1.0235,B,16.5,C,,,46.0,,4.8,C,205.3,T,202.4,M,1.4,N,0.7,M*5B
$GPZDA,110421.80,13,02,2015,00,00*6F
$YXXDR,C,,C,WCHR,C,,C,WCHT,C,,C,HINX,P,1.0235,B,STNP*4E
$HCHDT,9.0,T*20
$YXXDR,A,-0.6,D,PTCH,A,1.1,D,ROLL*76
$WIMWV,197.0,R,1.3,N,A*2E
$GPGGA,110422.40,4336.8586,N,01330.0201,E,1,7,1.5,0.0,M,45.4,M,,*59
$HCHDT,9.0,T*20
$GPVTG,322.3,T,319.4,M,0.0,N,0.0,K,A*2C
$WIMWV,193.8,R,1.2,N,A*23
$WIMDA,30.2239,I,1.0235,B,16.5,C,,,46.0,,4.8,C,202.8,T,199.9,M,1.2,N,0.6,M*5C
$GPZDA,110422.80,13,02,2015,00,00*6C
$YXXDR,C,,C,WCHR,C,,C,WCHT,C,,C,HINX,P,1.0235,B,STNP*4E
$HCHDT,9.0,T*20
$YXXDR,A,-0.6,D,PTCH,A,1.0,D,ROLL*77
$WIMWV,195.8,R,1.0,N,A*27
$GPGGA,110423.40,4336.8586,N,01330.0201,E,1,7,1.5,0.0,M,45.4,M,,*58
$HCHDT,9.0,T*20
$GPVTG,322.3,T,319.4,M,0.0,N,0.0,K,A*2C
$WIMWV,193.5,R,1.0,N,A*2C
$WIMDA,30.2239,I,1.0235,B,16.5,C,,,46.0,,4.8,C,202.6,T,199.7,M,1.0,N,0.5,M*5D
$GPZDA,110423.80,13,02,2015,00,00*6D
$YXXDR,C,,C,WCHR,C,,C,WCHT,C,,C,HINX,P,1.0235,B,STNP*4E
$HCHDT,8.9,T*28
$YXXDR,A,-0.6,D,PTCH,A,1.1,D,ROLL*76
$WIMWV,181.6,R,1.1,N,A*2D
$GPGGA,110424.40,4336.8586,N,01330.0201,E,1,7,1.5,0.0,M,45.4,M,,*5F
$HCHDT,9.0,T*20
$GPVTG,322.3,T,319.4,M,0.0,N,0.0,K,A*2C
$WIMWV,160.8,R,1.1,N,A*2C
$WIMDA,30.2239,I,1.0235,B,16.4,C,,,46.0,,4.7,C,169.8,T,166.9,M,1.1,N,0.6,M*5F
$GPZDA,110424.80,13,02,2015,00,00*6A
$YXXDR,C,,C,WCHR,C,,C,WCHT,C,,C,HINX,P,1.0235,B,STNP*4E
$HCHDT,9.0,T*20
$YXXDR,A,-0.6,D,PTCH,A,1.0,D,ROLL*77
$WIMWV,157.9,R,0.9,N,A*20
$GPGGA,110425.40,4336.8586,N,01330.0201,E,1,7,1.5,0.0,M,45.4,M,,*5E
$HCHDT,9.0,T*20
$GPVTG,322.3,T,319.4,M,0.0,N,0.0,K,A*2C
$WIMWV,135.2,R,0.9,N,A*2F
$WIMDA,30.2298,I,1.0237,B,16.4,C,,,46.1,,4.7,C,144.0,T,141.1,M,0.9,N,0.5,M*57
$GPZDA,110425.80,13,02,2015,00,00*6B
$YXXDR,C,,C,WCHR,C,,C,WCHT,C,,C,HINX,P,1.0237,B,STNP*4C
$HCHDT,9.0,T*20
$YXXDR,A,-0.6,D,PTCH,A,1.0,D,ROLL*77
$WIMWV,128.4,R,0.7,N,A*2B
$GPGGA,110426.40,4336.8586,N,01330.0201,E,1,7,1.5,0.0,M,45.4,M,,*5D
$HCHDT,9.0,T*20
$GPVTG,322.3,T,319.4,M,0.0,N,0.0,K,A*2C
$WIMWV,146.7,R,0.8,N,A*2F
$WIMDA,30.2239,I,1.0235,B,16.4,C,,,46.1,,4.7,C,155.6,T,152.7,M,0.7,N,0.4,M*53
$GPZDA,110426.80,13,02,2015,00,00*68
$YXXDR,C,,C,WCHR,C,,C,WCHT,C,,C,HINX,P,1.0235,B,STNP*4E
$HCHDT,9.0,T*20
$YXXDR,A,-0.6,D,PTCH,A,1.1,D,ROLL*76
$WIMWV,149.7,R,0.7,N,A*2F
$GPGGA,110427.40,4336.8586,N,01330.0201,E,1,7,1.5,0.0,M,45.4,M,,*5C
$HCHDT,9.0,T*20
$GPVTG,322.3,T,319.4,M,0.0,N,0.0,K,A*2C
$WIMWV,145.1,R,0.7,N,A*25
$WIMDA,30.2239,I,1.0235,B,16.4,C,,,46.1,,4.7,C,153.9,T,151.0,M,0.7,N,0.4,M*5E
$GPZDA,110427.80,13,02,2015,00,00*69
$YXXDR,C,,C,WCHR,C,,C,WCHT,C,,C,HINX,P,1.0235,B,STNP*4E
$HCHDT,9.0,T*20
$YXXDR,A,-0.6,D,PTCH,A,1.0,D,ROLL*77
$WIMWV,141.5,R,0.7,N,A*25
$GPGGA,110428.40,4336.8586,N,01330.0201,E,1,7,1.5,0.0,M,45.4,M,,*53
$HCHDT,8.9,T*28
$GPVTG,322.3,T,319.4,M,0.0,N,0.0,K,A*2C
$WIMWV,145.8,R,0.8,N,A*23
$WIMDA,30.2269,I,1.0236,B,16.4,C,,,46.1,,4.7,C,154.7,T,151.8,M,0.8,N,0.4,M*56
$GPZDA,110428.80,13,02,2015,00,00*66
$YXXDR,C,,C,WCHR,C,,C,WCHT,C,,C,HINX,P,1.0236,B,STNP*4D
$HCHDT,8.9,T*28
$YXXDR,A,-0.7,D,PTCH,A,1.0,D,ROLL*76
$WIMWV,153.0,R,0.8,N,A*2C
$GPGGA,110429.40,4336.8586,N,01330.0201,E,1,7,1.5,0.0,M,45.4,M,,*52
$HCHDT,8.9,T*28
$GPVTG,322.3,T,319.4,M,0.0,N,0.0,K,A*2C
$WIMWV,153.3,R,0.8,N,A*2F
$WIMDA,30.2269,I,1.0236,B,16.4,C,,,46.1,,4.7,C,162.2,T,159.3,M,0.7,N,0.4,M*5A
$GPZDA,110429.80,13,02,2015,00,00*67
$YXXDR,C,,C,WCHR,C,,C,WCHT,C,,C,HINX,P,1.0236,B,STNP*4D
$HCHDT,8.9,T*28
$YXXDR,A,-0.6,D,PTCH,A,1.0,D,ROLL*77
$WIMWV,165.1,R,0.9,N,A*29
$GPGGA,110430.40,4336.8586,N,01330.0201,E,1,7,1.5,0.0,M,45.4,M,,*5A
$HCHDT,9.0,T*20
$GPVTG,322.3,T,319.4,M,0.0,N,0.0,K,A*2C
$WIMWV,165.1,R,1.0,N,A*21
$WIMDA,30.2239,I,1.0235,B,16.4,C,,,46.2,,4.8,C,174.0,T,171.1,M,1.0,N,0.5,M*5A
$GPZDA,110430.80,13,02,2015,00,00*6F
$YXXDR,C,,C,WCHR,C,,C,WCHT,C,,C,HINX,P,1.0235,B,STNP*4E
$HCHDT,9.0,T*20
$YXXDR,A,-0.6,D,PTCH,A,1.1,D,ROLL*76
$WIMWV,171.8,R,1.0,N,A*2D
$GPGGA,110431.40,4336.8586,N,01330.0201,E,1,7,1.5,0.0,M,45.4,M,,*5B
$HCHDT,9.0,T*20
$GPVTG,322.3,T,319.4,M,0.0,N,0.0,K,A*2C
$WIMWV,166.4,R,0.9,N,A*2F
$WIMDA,30.2239,I,1.0235,B,16.4,C,,,46.2,,4.8,C,175.4,T,172.5,M,0.9,N,0.5,M*50
$GPZDA,110431.80,13,02,2015,00,00*6E
$YXXDR,C,,C,WCHR,C,,C,WCHT,C,,C,HINX,P,1.0235,B,STNP*4E
$HCHDT,8.9,T*28
$YXXDR,A,-0.7,D,PTCH,A,1.1,D,ROLL*77
$WIMWV,167.3,R,0.9,N,A*29
$GPGGA,110432.40,4336.8586,N,01330.0201,E,1,7,1.5,0.0,M,45.4,M,,*58
$HCHDT,9.0,T*20
$GPVTG,322.3,T,319.4,M,0.0,N,0.0,K,A*2C
$WIMWV,161.4,R,0.8,N,A*29
$WIMDA,30.2269,I,1.0236,B,16.4,C,,,46.2,,4.8,C,170.2,T,167.3,M,0.8,N,0.4,M*57
$GPZDA,110432.80,13,02,2015,00,00*6D
$YXXDR,C,,C,WCHR,C,,C,WCHT,C,,C,HINX,P,1.0236,B,STNP*4D
$HCHDT,9.0,T*20
$YXXDR,A,-0.6,D,PTCH,A,1.1,D,ROLL*76
$WIMWV,166.0,R,0.7,N,A*25
$GPGGA,110433.40,4336.8586,N,01330.0201,E,1,7,1.5,0.0,M,45.4,M,,*59
$HCHDT,8.9,T*28
$GPVTG,322.3,T,319.4,M,0.0,N,0.0,K,A*2C
$WIMWV,154.5,R,0.5,N,A*23
$WIMDA,30.2269,I,1.0236,B,16.4,C,,,46.2,,4.8,C,163.4,T,160.5,M,0.5,N,0.3,M*58
$GPZDA,110433.80,13,02,2015,00,00*6C
$YXXDR,C,,C,WCHR,C,,C,WCHT,C,,C,HINX,P,1.0236,B,STNP*4D
$HCHDT,8.9,T*28
$YXXDR,A,-0.6,D,PTCH,A,1.0,D,ROLL*77
$WIMWV,148.4,R,0.5,N,A*2F
$GPGGA,110434.40,4336.8586,N,01330.0201,E,1,7,1.5,0.0,M,45.4,M,,*5E
$HCHDT,9.0,T*20
$GPVTG,322.3,T,319.4,M,0.0,N,0.0,K,A*2C
$WIMWV,154.1,R,0.6,N,A*24
$WIMDA,30.2239,I,1.0235,B,16.4,C,,,46.3,,4.8,C,163.1,T,160.2,M,0.5,N,0.3,M*5D
$GPZDA,110434.80,13,02,2015,00,00*6B
$YXXDR,C,,C,WCHR,C,,C,WCHT,C,,C,HINX,P,1.0235,B,STNP*4E
$HCHDT,9.0,T*20
$YXXDR,A,-0.6,D,PTCH,A,1.0,D,ROLL*77
$WIMWV,167.4,R,0.7,N,A*20
$GPGGA,110435.40,4336.8586,N,01330.0201,E,1,7,1.5,0.0,M,45.4,M,,*5F
$HCHDT,8.9,T*28
$GPVTG,322.3,T,319.4,M,0.0,N,0.0,K,A*2C
$WIMWV,192.4,R,0.9,N,A*24
$WIMDA,30.2269,I,1.0236,B,16.4,C,,,46.3,,4.8,C,201.3,T,198.4,M,0.9,N,0.5,M*55
$GPZDA,110435.80,13,02,2015,00,00*6A
$YXXDR,C,,C,WCHR,C,,C,WCHT,C,,C,HINX,P,1.0236,B,STNP*4D
$HCHDT,9.0,T*20
$YXXDR,A,-0.6,D,PTCH,A,1.0,D,ROLL*77
$WIMWV,191.2,R,1.0,N,A*29
$GPGGA,110436.40,4336.8586,N,01330.0201,E,1,7,1.5,0.0,M,45.4,M,,*5C
$HCHDT,8.9,T*28
$GPVTG,322.3,T,319.4,M,0.0,N,0.0,K,A*2C
$WIMWV,199.7,R,1.2,N,A*26
$WIMDA,30.2239,I,1.0235,B,16.3,C,,,46.3,,4.7,C,208.6,T,205.7,M,1.2,N,0.6,M*5A
$GPZDA,110436.80,13,02,2015,00,00*69
$YXXDR,C,,C,WCHR,C,,C,WCHT,C,,C,HINX,P,1.0235,B,STNP*4E
$HCHDT,8.9,T*28
$YXXDR,A,-0.6,D,PTCH,A,1.0,D,ROLL*77
$WIMWV,197.1,R,1.3,N,A*2F
$GPGGA,110437.40,4336.8586,N,01330.0201,E,1,7,1.5,0.0,M,45.4,M,,*5D
$HCHDT,8.9,T*28
